date,time,type,address,city,lat,lon,desc
2007-01-01,00:00:00,FRAUD,1500  Block Rimrock Drive,SndESC,33.15229200,-117.0714757,FRAUD
2007-01-01,00:00:00,FRAUD,900 E  Block Mission Avenue,SndESC,33.13421836,-117.0743969,FRAUD
2007-01-01,00:00:00,SEX CRIMES,900  Block Sendero Avenue,SndESC,33.14188294,-117.0784088,OTHER SEX CRIME
2007-01-01,00:00:00,THEFT/LARCENY,400 W  Block Felicita Avenue,SndESC,33.10400941,-117.0743532,PETTY THEFT
2007-01-01,00:00:00,FRAUD,100 E  Block Vermont Avenue,SndESC,33.10270713,-117.0684875,FRAUD
2007-01-01,00:00:00,FRAUD,1000 E  Block Washington Avenue,SndESC,33.13157240,-117.0705501,FRAUD
2007-01-01,00:00:00,FRAUD,1700  Block Harold Road,SndESC,33.15383030,-117.1203747,FRAUD
2007-01-01,00:00:00,FRAUD,1800  Block Esquire Glen,SndESC,33.10362189,-117.1062788,FRAUD
2007-01-01,00:00:00,FRAUD,500 N  Block Midway Drive,SndESC,33.14002238,-117.0531079,FRAUD
2007-01-01,00:00:00,SEX CRIMES,2000  Block Ardath Avenue,SndESC,33.13396711,-117.0480939,OTHER SEX CRIME
2007-01-01,00:00:00,THEFT/LARCENY,300 W  Block Felicita Avenue,SndESC,33.10400941,-117.0743532,PETTY THEFT
2007-01-01,00:01:00,BURGLARY,100  Block Valley Boulevard,SndESC,33.12470105,-117.0766152,RESIDENTIAL BURGLARY
2007-01-01,00:01:00,FRAUD,500 W  Block 11Th Avenue,SndESC,33.10960235,-117.0812121,FRAUD
2007-01-01,01:53:00,DRUGS/ALCOHOL VIOLATIONS,900 W  Block Valley Parkway,SndESC,33.09479744,-117.0564742,POSSESS CONTROLLED SUBSTANCE
2007-01-01,02:57:00,DUI,400 E  Block Mission Avenue,SndESC,33.13162034,-117.0812945,DUI ALCOHOL AND/OR DRUGS
2007-01-01,00:01:00,ASSAULT,1300 S  Block Maple Street,SndESC,33.10929909,-117.0745868,WILLFULLY DISCHARGE FIREARM IN GROSSLY NEGLIGENT MANNER
2007-01-01,02:00:00,SEX CRIMES,1200  Block Borden Road,SndESC,33.13449613,-117.1012149,OTHER SEX CRIME
2007-01-01,02:45:00,BURGLARY,600  Block Paul Street,SndESC,33.12538632,-117.0553624,RESIDENTIAL BURGLARY
2007-01-01,05:30:00,MOTOR VEHICLE THEFT,200 W  Block Lincoln Avenue,SndESC,33.13260846,-117.0905111,TAKE VEHICLE W/O OWNER'S CONSENT/VEHICLE THEFT
2007-01-01,04:00:00,VEHICLE BREAK-IN/THEFT,100 E  Block El Norte Parkway,SndESC,33.15092171,-117.0424042,VEHICLE BREAK-IN/THEFT
2007-01-01,11:40:00,DRUGS/ALCOHOL VIOLATIONS,700 W  Block Valley Parkway,SndESC,33.09479744,-117.0564742,PROTECTIVE CUSTODY:DISORDERLY CONDUCT ALCOHOL RELATED
2007-01-01,08:00:00,MOTOR VEHICLE THEFT,1600  Block Mc Kinley Avenue,SndESC,33.13703710,-117.0643894,TAKE VEHICLE W/O OWNER'S CONSENT/VEHICLE THEFT
2007-01-01,08:00:00,SEX CRIMES,200 N  Block Citrus Avenue,SndESC,33.14000345,-117.0436362,OTHER SEX CRIME
2007-01-01,05:58:00,BURGLARY,1800  Block Don Lee Place,SndESC,33.12811010,-117.1211796,COMMERCIAL BURGLARY
2007-01-01,12:00:00,FRAUD,1300 W  Block 09Th Avenue,SndESC,33.10923128,-117.0999414,FRAUD
2007-01-01,12:00:00,FRAUD,2000  Block Matthew Place,SndESC,33.14574210,-117.0568508,FRAUD
2007-01-01,08:30:00,VEHICLE BREAK-IN/THEFT,1700  Block La Honda Drive,SndESC,33.16196761,-117.0571243,VEHICLE BREAK-IN/THEFT
2007-01-01,08:15:00,FRAUD,1800 N  Block Broadway,SndESC,33.15067132,-117.0912609,FRAUD
2007-01-01,12:00:00,FRAUD,400 N  Block Midway Drive,SndESC,33.13822978,-117.0521922,FRAUD
2007-01-01,12:00:00,FRAUD,800 N  Block Fig Street,SndESC,33.13351466,-117.0775292,FRAUD
2007-01-01,10:15:00,DRUGS/ALCOHOL VIOLATIONS,2300 E  Block Valley Parkway,SndESC,33.16263336,-117.0971264,POSSESS SYRINGE
2007-01-01,12:00:00,FRAUD,1000  Block Joshua Street,SndESC,33.13568244,-117.0849319,FRAUD
2007-01-01,12:00:00,SEX CRIMES,900  Block Del Dios Highway,SndESC,33.10848757,-117.0998157,OTHER SEX CRIME
2007-01-01,12:00:00,THEFT/LARCENY,2000  Block Alexander Drive,SndESC,33.09439117,-117.0761165,GRAND THEFT:MONEY/LABOR/PROPERTY OVER $400
2007-01-01,12:00:00,FRAUD,300  Block Lansing Cr Drive,SndESC,33.12681601,-117.0782446,FRAUD
2007-01-01,12:00:00,FRAUD,300 N  Block Juniper Street,SndESC,33.12506853,-117.0801937,FRAUD
2007-01-01,12:00:00,SEX CRIMES,400 S  Block Hidden Trails Road,SndESC,33.14181479,-117.0230372,OTHER SEX CRIME
2007-01-01,12:00:00,FRAUD,2000  Block Lee Drive,SndESC,33.14703091,-117.0569676,FRAUD
2007-01-01,12:00:00,MOTOR VEHICLE THEFT,1200 W  Block 15Th Avenue,SndESC,33.10167100,-117.0873719,TAKE VEHICLE W/O OWNER'S CONSENT/VEHICLE THEFT
2007-01-01,12:00:00,SEX CRIMES,1400  Block Knoll Park Glen,SndESC,33.10123284,-117.0920018,OTHER SEX CRIME
2007-01-01,13:10:00,DRUGS/ALCOHOL VIOLATIONS,500 W  Block Washington Avenue,SndESC,33.12475537,-117.0909320,DISORDERLY CONDUCT:  ALCOHOL
2007-01-01,12:00:00,THEFT/LARCENY,1200  Block Simpson Way,SndESC,33.12075138,-117.1046833,GRAND THEFT:MONEY/LABOR/PROPERTY OVER $400
2007-01-01,12:00:00,FRAUD,2200  Block Holly Avenue,SndESC,33.14468531,-117.0524930,FRAUD
2007-01-01,12:00:00,FRAUD,500 W  Block 08Th Avenue,SndESC,33.11228780,-117.0831199,FRAUD
2007-01-01,13:30:00,VANDALISM,1100 N  Block Ash Street,SndESC,33.14107329,-117.0746489,VANDALISM (LESS THAN $400)
2007-01-01,14:12:00,ROBBERY,700 S  Block Escondido Boulevard,SndESC,33.11467101,-117.0802096,OTHER ROBBERY - NO WEAPON
2007-01-01,12:00:00,THEFT/LARCENY,200 S  Block Quince Street,SndESC,33.11712906,-117.0874345,PETTY THEFT
2007-01-01,13:35:00,THEFT/LARCENY,500 E  Block 03Rd Avenue,SndESC,33.12230266,-117.0741560,PETTY THEFT
2007-01-02,01:20:00,BURGLARY,2000 S  Block Escondido Boulevard,SndESC,33.09892329,-117.0705612,COMMERCIAL BURGLARY
2007-01-01,15:00:00,VEHICLE BREAK-IN/THEFT,100 E  Block 05Th Avenue,SndESC,33.11839609,-117.0782248,VEHICLE BREAK-IN/THEFT
2007-01-01,17:53:00,DRUGS/ALCOHOL VIOLATIONS,500  Block Aster Street,SndESC,33.13763095,-117.0585232,DISORDERLY CONDUCT:  ALCOHOL
2007-01-02,12:00:00,FRAUD,500  Block Calle De La Paz,SndESC,33.06961772,-117.0801005,FRAUD
2007-01-02,07:40:00,MOTOR VEHICLE THEFT,200 E  Block Vermont Avenue,SndESC,33.10353580,-117.0668333,TAKE VEHICLE W/O OWNER'S CONSENT/VEHICLE THEFT
2007-01-01,17:53:00,DRUGS/ALCOHOL VIOLATIONS,500  Block Aster Street,SndESC,33.13763095,-117.0585232,DISORDERLY CONDUCT:  ALCOHOL
2007-01-01,18:00:00,BURGLARY,300 W  Block Grand Avenue,SndESC,33.11996078,-117.0848601,COMMERCIAL BURGLARY
2007-01-02,18:00:00,MOTOR VEHICLE THEFT,1600  Block Riva Lane,SndESC,33.13612287,-117.0600426,TAKE VEHICLE W/O OWNER'S CONSENT/VEHICLE THEFT
2007-01-02,17:00:00,THEFT/LARCENY,200 E  Block Valley Parkway,SndESC,33.12552276,-117.0764823,PETTY THEFT
2007-01-01,19:00:00,MOTOR VEHICLE THEFT,900 E  Block Washington Avenue,SndESC,33.13052709,-117.0723870,TAKE VEHICLE W/O OWNER'S CONSENT/VEHICLE THEFT
2007-01-01,22:00:00,MOTOR VEHICLE THEFT,500 E  Block Mission Avenue,SndESC,33.13186750,-117.0805047,TAKE VEHICLE W/O OWNER'S CONSENT/VEHICLE THEFT
2007-01-02,22:57:00,DRUGS/ALCOHOL VIOLATIONS,1500 W  Block Valley Parkway,SndESC,33.09479744,-117.0564742,USE/UNDER INFLUENCE OF CONTROLLED SUBSTANCE
2007-01-02,19:45:00,DUI,100 S  Block Escondido Boulevard,SndESC,33.12006262,-117.0840217,DUI ALCOHOL AND/OR DRUGS
2007-01-02,05:30:00,MOTOR VEHICLE THEFT,900 N  Block Gamble Street,SndESC,33.13282855,-117.0812553,TAKE VEHICLE W/O OWNER'S CONSENT/VEHICLE THEFT
2007-01-02,14:00:00,VEHICLE BREAK-IN/THEFT,500 N  Block Quince Street,SndESC,33.12308261,-117.0913290,VEHICLE BREAK-IN/THEFT
2007-01-03,08:10:00,DUI,500 S  Block Upas Street,SndESC,33.11139736,-117.0914922,DUI ALCOHOL AND/OR DRUGS
2007-01-02,21:10:00,VEHICLE BREAK-IN/THEFT,1000 W  Block El Norte Parkway,SndESC,33.15195756,-117.0423926,VEHICLE BREAK-IN/THEFT
2007-01-02,08:00:00,BURGLARY,1500 W  Block Valley Parkway,SndESC,33.09479744,-117.0564742,COMMERCIAL BURGLARY
2007-01-02,15:15:00,THEFT/LARCENY,100 E  Block Pennsylvania Avenue,SndESC,33.12392900,-117.0818765,GRAND THEFT:MONEY/LABOR/PROPERTY OVER $400
2007-01-03,14:27:00,DRUGS/ALCOHOL VIOLATIONS,1200 E  Block Valley Parkway,SndESC,33.09479744,-117.0564742,TRANSPORT/SELL CONTROLLED SUBSTANCE
2007-01-03,19:00:00,MOTOR VEHICLE THEFT,900  Block Martin Drive,SndESC,33.13655576,-117.0758661,TAKE VEHICLE W/O OWNER'S CONSENT/VEHICLE THEFT
2007-01-02,08:00:00,BURGLARY,600 W  Block 09Th Avenue,SndESC,33.11073303,-117.0838089,COMMERCIAL BURGLARY
2007-01-02,22:00:00,VANDALISM,900  Block Del Dios Highway,SndESC,33.10848757,-117.0998157,VANDALISM:DAMAGE PROPERTY (MISDEMEANOR)
2007-01-03,22:00:00,BURGLARY,700 W  Block 06Th Avenue,SndESC,33.11277318,-117.0870792,RESIDENTIAL BURGLARY
2007-01-03,21:00:00,VEHICLE BREAK-IN/THEFT,1100  Block Avocado Avenue,SndESC,33.13391116,-117.0980769,VEHICLE BREAK-IN/THEFT
2007-01-02,10:00:00,FRAUD,1900 E  Block Grand Avenue,SndESC,33.13421776,-117.0499637,FRAUD
2007-01-03,10:00:00,THEFT/LARCENY,300 W  Block El Norte Parkway,SndESC,33.15092171,-117.0424042,PETTY THEFT
2007-01-04,00:30:00,MOTOR VEHICLE THEFT,1100  Block Catspaw Place,SndESC,33.10629213,-117.1039648,TAKE VEHICLE W/O OWNER'S CONSENT/VEHICLE THEFT
2007-01-03,23:10:00,BURGLARY,1200 N  Block Escondido Boulevard,SndESC,33.13651098,-117.0926352,COMMERCIAL BURGLARY
2007-01-02,22:00:00,VANDALISM,1300  Block Morning View Drive,SndESC,33.13748963,-117.0959676,"VANDALISM ($5,000-$50,000)"
2007-01-03,16:00:00,VEHICLE BREAK-IN/THEFT,500 N  Block Grape Street,SndESC,33.12811129,-117.0762553,VEHICLE BREAK-IN/THEFT
2007-01-04,13:25:00,VEHICLE BREAK-IN/THEFT,200 E  Block 02Nd Avenue,SndESC,33.12177024,-117.0787776,VEHICLE BREAK-IN/THEFT
2007-01-04,07:26:00,DRUGS/ALCOHOL VIOLATIONS,900 N  Block Quince Street,SndESC,33.12870892,-117.0938169,USE/UNDER INFLUENCE OF CONTROLLED SUBSTANCE
2007-01-02,22:50:00,DUI,200 W  Block Felicita Avenue,SndESC,33.10528217,-117.0717738,DUI ALCOHOL AND/OR DRUGS
2007-01-03,19:00:00,VEHICLE BREAK-IN/THEFT,2900 N  Block Broadway,SndESC,33.16996541,-117.0900191,VEHICLE BREAK-IN/THEFT
2007-01-04,15:00:00,SEX CRIMES,300  Block Lansing Cr Drive,SndESC,33.12681601,-117.0782446,OTHER SEX CRIME
2007-01-04,10:03:00,SEX CRIMES,3300  Block Bear Valley Parkway,SndESC,33.07587963,-117.0580289,OTHER SEX CRIME
2007-01-03,00:01:00,DRUGS/ALCOHOL VIOLATIONS,300 W  Block 08Th Avenue,SndESC,33.11365961,-117.0804091,DISORDERLY CONDUCT:  ALCOHOL
2007-01-03,21:00:00,MOTOR VEHICLE THEFT,1000 W  Block El Norte Parkway,SndESC,33.15195756,-117.0423926,TAKE VEHICLE W/O OWNER'S CONSENT/VEHICLE THEFT
2007-01-04,16:20:00,DRUGS/ALCOHOL VIOLATIONS,300 N  Block Broadway,SndESC,33.12391883,-117.0825018,POSSESS MARIJUANA 28.5 GRAMS OR LESS OR W/NO PRIOR
2007-01-04,12:00:00,MOTOR VEHICLE THEFT,700 N  Block Grape Street,SndESC,33.13070922,-117.0780111,TAKE VEHICLE W/O OWNER'S CONSENT/VEHICLE THEFT
2007-01-03,19:35:00,DRUGS/ALCOHOL VIOLATIONS,100 W  Block Washington Avenue,SndESC,33.12664787,-117.0848454,USE/UNDER INFLUENCE OF CONTROLLED SUBSTANCE
2007-01-03,23:00:00,MOTOR VEHICLE THEFT,800 E  Block 07Th Avenue,SndESC,33.12063626,-117.0688931,TAKE VEHICLE W/O OWNER'S CONSENT/VEHICLE THEFT
2007-01-05,03:35:00,ROBBERY,1500 E  Block Grand Avenue,SndESC,33.13032956,-117.0583774,COMMERCIAL ROBBERY - NO WEAPON
2007-01-05,00:01:00,VANDALISM,700 N  Block Fig Street,SndESC,33.13202917,-117.0768786,VANDALISM ($400 OR MORE)
2007-01-03,20:40:00,DRUGS/ALCOHOL VIOLATIONS,200 N  Block Rose Street,SndESC,33.13303615,-117.0588859,POSSESS CONTROLLED SUBSTANCE
2007-01-04,00:01:00,BURGLARY,1800  Block Cortez Avenue,SndESC,33.15262191,-117.1160316,RESIDENTIAL BURGLARY
2007-01-05,07:00:00,MOTOR VEHICLE THEFT,600 W  Block Lincoln Avenue,SndESC,33.13085022,-117.0961648,TAKE VEHICLE W/O OWNER'S CONSENT/VEHICLE THEFT
2007-01-05,06:00:00,BURGLARY,1900 N  Block Broadway,SndESC,33.15285982,-117.0916003,RESIDENTIAL BURGLARY
2007-01-03,23:00:00,MOTOR VEHICLE THEFT,300 W  Block Vermont Avenue,SndESC,33.10135183,-117.0711574,TAKE VEHICLE W/O OWNER'S CONSENT/VEHICLE THEFT
2007-01-04,01:00:00,MOTOR VEHICLE THEFT,2000 E  Block Grand Avenue,SndESC,33.13466689,-117.0489717,TAKE VEHICLE W/O OWNER'S CONSENT/VEHICLE THEFT
2007-01-05,07:30:00,BURGLARY,200 N  Block Midway Drive,SndESC,33.13529902,-117.0503758,RESIDENTIAL BURGLARY
2007-01-05,07:47:00,DRUGS/ALCOHOL VIOLATIONS,900 N  Block Quince Street,SndESC,33.12870892,-117.0938169,POSSESS CONTROLLED SUBSTANCE
2007-01-04,01:00:00,BURGLARY,3100  Block Walden Glen,SndESC,33.11032361,-117.0028531,RESIDENTIAL BURGLARY
2007-01-04,10:30:00,ROBBERY,600 E  Block Valley Parkway,SndESC,33.09416606,-117.0575623,COMMERCIAL ROBBERY - NO WEAPON
2007-01-05,12:50:00,BURGLARY,1600  Block Crescent Knolls Glen,SndESC,33.09810286,-117.1056942,RESIDENTIAL BURGLARY
2007-01-05,08:00:00,VEHICLE BREAK-IN/THEFT,700 N  Block Quince Street,SndESC,33.12643248,-117.0928284,VEHICLE BREAK-IN/THEFT
2007-01-04,07:28:00,DRUGS/ALCOHOL VIOLATIONS,900 N  Block Quince Street,SndESC,33.12870892,-117.0938169,USE/UNDER INFLUENCE OF CONTROLLED SUBSTANCE
2007-01-04,22:00:00,VEHICLE BREAK-IN/THEFT,1800  Block Centennial Way,SndESC,33.15577530,-117.0720266,VEHICLE BREAK-IN/THEFT
2007-01-05,16:30:00,BURGLARY,400  Block San Pasqual Valley Road,SndESC,33.12608001,-117.0649466,COMMERCIAL BURGLARY
2007-01-05,12:00:00,SEX CRIMES,1800 E  Block Washington Avenue,SndESC,33.13962071,-117.0570269,OTHER SEX CRIME
2007-01-04,12:00:00,VANDALISM,300 W  Block Mission Avenue,SndESC,33.12875839,-117.0905005,"VANDALISM ($5,000-$50,000)"
2007-01-05,00:01:00,BURGLARY,2500  Block Bear Valley Parkway,SndESC,33.13795965,-117.0418436,RESIDENTIAL BURGLARY
2007-01-05,19:52:00,VANDALISM,700  Block Metcalf Street,SndESC,33.12362484,-117.1007677,"VANDALISM ($5,000-$50,000)"
2007-01-05,12:00:00,VANDALISM,2100  Block Krystal Place,SndESC,33.15132252,-117.1212131,"VANDALISM ($5,000-$50,000)"
2007-01-04,15:00:00,THEFT/LARCENY,1100  Block Mtn Heights Drive,SndESC,33.08494945,-117.0919329,GRAND THEFT:MONEY/LABOR/PROPERTY OVER $400
2007-01-05,16:30:00,BURGLARY,400  Block San Pasqual Valley Road,SndESC,33.12608001,-117.0649466,RESIDENTIAL BURGLARY
2007-01-06,00:30:00,ASSAULT,1300 E  Block Valley Parkway,SndESC,33.09479744,-117.0564742,INFLICT CORPORAL INJURY ON SPOUSE/COHABITANT
2007-01-05,16:00:00,THEFT/LARCENY,700 E  Block Mission Avenue,SndESC,33.13300966,-117.0769555,PETTY THEFT
2007-01-04,19:50:00,MOTOR VEHICLE THEFT,1100 E  Block Washington Avenue,SndESC,33.13234924,-117.0692426,TAKE VEHICLE W/O OWNER'S CONSENT/VEHICLE THEFT
2007-01-05,17:00:00,VANDALISM,1500 S  Block Hale Avenue,SndESC,33.10511860,-117.1114270,VANDALISM ($400 OR MORE)
2007-01-06,02:54:00,DUI,600  Block Roosevelt Street,SndESC,33.13540278,-117.0688252,DUI ALCOHOL AND/OR DRUGS
2007-01-05,16:30:00,VEHICLE BREAK-IN/THEFT,1500  Block Brian Place,SndESC,33.10432873,-117.0814115,VEHICLE BREAK-IN/THEFT
2007-01-04,21:30:00,VEHICLE BREAK-IN/THEFT,500  Block Valley Grove Lane,SndESC,33.09416606,-117.0575623,VEHICLE BREAK-IN/THEFT
2007-01-05,17:00:00,VANDALISM,3600  Block Cam Bajada,SndESC,33.07016587,-117.0531187,VANDALISM:DAMAGE PROPERTY (MISDEMEANOR)
2007-01-06,11:00:00,ASSAULT,1800 E  Block Washington Avenue,SndESC,33.13962071,-117.0570269,ASSAULT W/DEADLY WEAPON OTHER THAN FIREARM OR GBI FORCE
2007-01-05,17:30:00,VEHICLE BREAK-IN/THEFT,1000 E  Block Washington Avenue,SndESC,33.13157240,-117.0705501,VEHICLE BREAK-IN/THEFT
2007-01-05,13:00:00,MOTOR VEHICLE THEFT,700 E  Block Mission Avenue,SndESC,33.13300966,-117.0769555,TAKE VEHICLE W/O OWNER'S CONSENT/VEHICLE THEFT
2007-01-05,18:00:00,VEHICLE BREAK-IN/THEFT,900 N  Block Fig Street,SndESC,33.13499392,-117.0781787,VEHICLE BREAK-IN/THEFT
2007-01-06,15:11:00,DRUGS/ALCOHOL VIOLATIONS,1600 E  Block Valley Parkway,SndESC,33.16263336,-117.0971264,POSSESS CONTROLLED SUBSTANCE
2007-01-06,11:00:00,FRAUD,200  Block Melbourne Glen,SndESC,33.16903285,-117.0891372,FRAUD
2007-01-05,15:00:00,MOTOR VEHICLE THEFT,900 S  Block Hale Avenue,SndESC,33.11205921,-117.1072589,TAKE VEHICLE W/O OWNER'S CONSENT/VEHICLE THEFT
2007-01-05,18:30:00,ASSAULT,400 E  Block 10Th Avenue,SndESC,33.11541721,-117.0721489,BATTERY
2007-01-06,17:15:00,DRUGS/ALCOHOL VIOLATIONS,600  Block Waverly Place,SndESC,33.12774244,-117.0827636,POSS CONTRL SUB PARAPHERNALIA
2007-01-06,12:30:00,VANDALISM,700 E  Block Mission Avenue,SndESC,33.13300966,-117.0769555,VANDALISM ($400 OR MORE)
2007-01-05,17:00:00,BURGLARY,3300  Block Bear Valley Parkway,SndESC,33.07587963,-117.0580289,COMMERCIAL BURGLARY
2007-01-06,01:44:00,DRUGS/ALCOHOL VIOLATIONS,400 S  Block Escondido Boulevard,SndESC,33.11735583,-117.0821163,TRANSPORT/SELL CONTROLLED SUBSTANCE
2007-01-06,20:30:00,ASSAULT,500 W  Block 09Th Avenue,SndESC,33.11136821,-117.0825396,ASSAULT W/DEADLY WEAPON OTHER THAN FIREARM OR GBI FORCE
2007-01-06,17:00:00,BURGLARY,2100 E  Block Lincoln Avenue,SndESC,33.14934139,-117.0566932,RESIDENTIAL BURGLARY
2007-01-05,20:00:00,ASSAULT,3400  Block Del Lago Boulevard,SndESC,33.07266364,-117.0711770,BATTERY
2007-01-06,04:06:00,DUI,300  Block Idaho Avenue,SndESC,33.11067987,-117.0693192,DUI ALCOHOL AND/OR DRUGS
2007-01-07,00:51:00,DUI,300 W  Block Valley Parkway,SndESC,33.09416606,-117.0575623,DUI ALCOHOL AND/OR DRUGS
2007-01-06,20:10:00,ROBBERY,2200  Block Bear Valley Parkway,SndESC,33.13553732,-117.0437099,STREET ROBBERY - NO WEAPON
2007-01-05,23:00:00,BURGLARY,1700 S  Block Escondido Boulevard,SndESC,33.10308090,-117.0719897,COMMERCIAL BURGLARY
2007-01-06,11:30:00,VANDALISM,1200  Block Autopark Way,SndESC,33.11663245,-117.1099750,"VANDALISM ($5,000-$50,000)"
2007-01-07,06:00:00,MOTOR VEHICLE THEFT,1600  Block Forest Glen,SndESC,33.14580652,-117.0972688,TAKE VEHICLE W/O OWNER'S CONSENT/VEHICLE THEFT
2007-01-06,21:00:00,VEHICLE BREAK-IN/THEFT,500 N  Block Beech Street,SndESC,33.13139761,-117.0694524,VEHICLE BREAK-IN/THEFT
2007-01-06,02:54:00,DUI,600  Block Roosevelt Street,SndESC,33.13540278,-117.0688252,DUI ALCOHOL AND/OR DRUGS
2007-01-06,20:00:00,MOTOR VEHICLE THEFT,200 E  Block 05Th Avenue,SndESC,33.11907712,-117.0768725,TAKE VEHICLE W/O OWNER'S CONSENT/VEHICLE THEFT
2007-01-07,10:44:00,VEHICLE BREAK-IN/THEFT,1000 E  Block Washington Avenue,SndESC,33.13157240,-117.0705501,VEHICLE BREAK-IN/THEFT
2007-01-06,23:59:00,VEHICLE BREAK-IN/THEFT,2000  Block La Brea Street,SndESC,33.15603301,-117.1147752,VEHICLE BREAK-IN/THEFT
2007-01-06,12:00:00,FRAUD,1300  Block Pleasant Hill Street,SndESC,33.13582410,-117.1017287,FRAUD
2007-01-07,03:02:00,DUI,400 W  Block Mission Avenue,SndESC,33.12875839,-117.0905005,DUI ALCOHOL AND/OR DRUGS
2007-01-07,12:00:00,SEX CRIMES,500 E  Block Valley Parkway,SndESC,33.09416606,-117.0575623,OTHER SEX CRIME
2007-01-07,00:00:00,FRAUD,2000  Block Vintage Place,SndESC,33.15835466,-117.0621637,FRAUD
2007-01-06,13:00:00,MOTOR VEHICLE THEFT,600 N  Block Broadway,SndESC,33.12746526,-117.0840708,TAKE VEHICLE W/O OWNER'S CONSENT/VEHICLE THEFT
2007-01-07,09:30:00,SEX CRIMES,3400  Block Holly Oak Lane,SndESC,33.12781368,-117.0069756,OTHER SEX CRIME
2007-01-07,21:00:00,VANDALISM,700 E  Block Mission Avenue,SndESC,33.13300966,-117.0769555,VANDALISM:DAMAGE PROPERTY (MISDEMEANOR)
2007-01-07,07:15:00,DRUGS/ALCOHOL VIOLATIONS,1700 E  Block Valley Parkway,SndESC,33.16263336,-117.0971264,USE/UNDER INFLUENCE OF CONTROLLED SUBSTANCE
2007-01-06,15:00:00,VANDALISM,3300  Block Bear Valley Parkway,SndESC,33.07587963,-117.0580289,VANDALISM ($400 OR MORE)
2007-01-07,12:00:00,BURGLARY,900 S  Block Hale Avenue,SndESC,33.11205921,-117.1072589,RESIDENTIAL BURGLARY
2007-01-07,22:00:00,MOTOR VEHICLE THEFT,600 W  Block Lincoln Avenue,SndESC,33.13085022,-117.0961648,TAKE VEHICLE W/O OWNER'S CONSENT/VEHICLE THEFT
2007-01-07,14:30:00,VANDALISM,1000 N  Block Broadway,SndESC,33.13499581,-117.0873906,VANDALISM ($400 OR MORE)
2007-01-06,16:35:00,DRUGS/ALCOHOL VIOLATIONS,1200 S  Block Escondido Boulevard,SndESC,33.11041047,-117.0771909,PROTECTIVE CUSTODY:DISORDERLY CONDUCT ALCOHOL RELATED
2007-01-07,12:00:00,FRAUD,700 W  Block Grand Avenue,SndESC,33.11737385,-117.0900000,FRAUD
2007-01-08,00:15:00,VEHICLE BREAK-IN/THEFT,200 E  Block 05Th Avenue,SndESC,33.11907712,-117.0768725,VEHICLE BREAK-IN/THEFT
2007-01-07,17:00:00,MOTOR VEHICLE THEFT,2000  Block Laura Drive,SndESC,33.15406315,-117.0630046,TAKE VEHICLE W/O OWNER'S CONSENT/VEHICLE THEFT
2007-01-06,18:00:00,MOTOR VEHICLE THEFT,1000  Block Rock Springs Road,SndESC,33.13014541,-117.0994223,TAKE VEHICLE W/O OWNER'S CONSENT/VEHICLE THEFT
2007-01-07,18:00:00,BURGLARY,2800 N  Block Broadway,SndESC,33.16996541,-117.0900191,COMMERCIAL BURGLARY
2007-01-08,01:30:00,MOTOR VEHICLE THEFT,200 N  Block Midway Drive,SndESC,33.13529902,-117.0503758,TAKE VEHICLE W/O OWNER'S CONSENT/VEHICLE THEFT
2007-01-07,17:00:00,MOTOR VEHICLE THEFT,1000  Block Rock Springs Road,SndESC,33.13014541,-117.0994223,TAKE VEHICLE W/O OWNER'S CONSENT/VEHICLE THEFT
2007-01-06,21:30:00,DRUGS/ALCOHOL VIOLATIONS,500 N  Block Quince Street,SndESC,33.12308261,-117.0913290,PROTECTIVE CUSTODY:DISORDERLY CONDUCT ALCOHOL RELATED
2007-01-07,21:30:00,VEHICLE BREAK-IN/THEFT,300 N  Block Escondido Boulevard,SndESC,33.12240760,-117.0856901,VEHICLE BREAK-IN/THEFT
2007-01-08,12:00:00,DRUGS/ALCOHOL VIOLATIONS,900 E  Block Mission Avenue,SndESC,33.13421836,-117.0743969,MINOR POSSESS MARIJUANA ON GROUNDS DURING SCHOOL ACTIVITIES
2007-01-07,17:35:00,MOTOR VEHICLE THEFT,700 E  Block Mission Avenue,SndESC,33.13300966,-117.0769555,TAKE VEHICLE W/O OWNER'S CONSENT/VEHICLE THEFT
2007-01-06,22:00:00,VANDALISM,2000  Block La Brea Street,SndESC,33.15603301,-117.1147752,VANDALISM (LESS THAN $400)
2007-01-08,19:00:00,MOTOR VEHICLE THEFT,800 N  Block Cedar Street,SndESC,33.13594456,-117.0741649,TAKE VEHICLE W/O OWNER'S CONSENT/VEHICLE THEFT
2007-01-08,18:55:00,DRUGS/ALCOHOL VIOLATIONS,1400 S  Block Orange Street,SndESC,33.10795278,-117.0772755,PROTECTIVE CUSTODY:DISORDERLY CONDUCT ALCOHOL RELATED
2007-01-07,18:00:00,VANDALISM,1000  Block Morning View Drive,SndESC,33.13748963,-117.0959676,"VANDALISM ($5,000-$50,000)"
2007-01-07,00:30:00,BURGLARY,800 E  Block Washington Avenue,SndESC,33.13000732,-117.0740454,RESIDENTIAL BURGLARY
2007-01-08,19:00:00,MOTOR VEHICLE THEFT,400 W  Block El Norte Parkway,SndESC,33.15092171,-117.0424042,TAKE VEHICLE W/O OWNER'S CONSENT/VEHICLE THEFT
2007-01-08,19:00:00,VEHICLE BREAK-IN/THEFT,2400  Block Cranston Drive,SndESC,33.09069996,-117.0701517,VEHICLE BREAK-IN/THEFT
2007-01-07,19:17:00,DUI,600  Block Beechwood Street,SndESC,33.13330333,-117.0696343,DUI ALCOHOL AND/OR DRUGS
2007-01-07,16:35:00,THEFT/LARCENY,1600 E  Block Washington Avenue,SndESC,33.13747532,-117.0606415,GRAND THEFT FROM PERSON
2007-01-08,20:00:00,ASSAULT,200 S  Block Rose Street,SndESC,33.12879923,-117.0561032,ASSAULT W/DEADLY WEAPON OTHER THAN FIREARM OR GBI FORCE
2007-01-08,20:00:00,BURGLARY,1000 W  Block El Norte Parkway,SndESC,33.15195756,-117.0423926,COMMERCIAL BURGLARY
2007-01-07,20:00:00,VEHICLE BREAK-IN/THEFT,1400  Block Stoneridge Circle,SndESC,33.08692026,-117.1006657,VEHICLE BREAK-IN/THEFT
2007-01-08,02:00:00,MOTOR VEHICLE THEFT,800 E  Block Mission Avenue,SndESC,33.13355490,-117.0757986,TAKE VEHICLE W/O OWNER'S CONSENT/VEHICLE THEFT
2007-01-08,21:00:00,MOTOR VEHICLE THEFT,900 E  Block Washington Avenue,SndESC,33.13052709,-117.0723870,TAKE VEHICLE W/O OWNER'S CONSENT/VEHICLE THEFT
2007-01-08,23:00:00,MOTOR VEHICLE THEFT,1000 W  Block El Norte Parkway,SndESC,33.15195756,-117.0423926,TAKE VEHICLE W/O OWNER'S CONSENT/VEHICLE THEFT
2007-01-07,20:30:00,MOTOR VEHICLE THEFT,800 E  Block Mission Avenue,SndESC,33.13355490,-117.0757986,TAKE VEHICLE W/O OWNER'S CONSENT/VEHICLE THEFT
2007-01-08,12:00:00,FRAUD,700 W  Block Grand Avenue,SndESC,33.11737385,-117.0900000,FRAUD
2007-01-08,22:42:00,ASSAULT,600  Block Country Club Lane,SndESC,33.15869566,-117.1008923,BATTERY
2007-01-09,12:39:00,THEFT/LARCENY,2200  Block Enterprise Street,SndESC,33.11269433,-117.1164160,GRAND THEFT:MONEY/LABOR/PROPERTY OVER $400
2007-01-07,23:05:00,BURGLARY,2000 E  Block Valley Parkway,SndESC,33.16263336,-117.0971264,COMMERCIAL BURGLARY
2007-01-08,12:00:00,FRAUD,800  Block Chardonney Way,SndESC,33.11875830,-117.1241648,FRAUD
2007-01-09,00:07:00,THEFT/LARCENY,600 N  Block Broadway,SndESC,33.12746526,-117.0840708,PETTY THEFT
2007-01-09,15:00:00,DRUGS/ALCOHOL VIOLATIONS,600 N  Block Escondido Boulevard,SndESC,33.12653352,-117.0883151,DISORDERLY CONDUCT:  ALCOHOL
2007-01-08,05:30:00,MOTOR VEHICLE THEFT,2800  Block Wanek Road,SndESC,33.14722962,-117.0379534,TAKE VEHICLE W/O OWNER'S CONSENT/VEHICLE THEFT
2007-01-08,17:30:00,ROBBERY,400 N  Block Juniper Street,SndESC,33.12563204,-117.0805926,STREET ROBBERY - WEAPON USED
2007-01-09,06:00:00,BURGLARY,400  Block Devonshire Glen,SndESC,33.14247802,-117.0432945,RESIDENTIAL BURGLARY
2007-01-09,18:30:00,VEHICLE BREAK-IN/THEFT,2300 E  Block Valley Parkway,SndESC,33.16263336,-117.0971264,VEHICLE BREAK-IN/THEFT
2007-01-08,09:39:00,DRUGS/ALCOHOL VIOLATIONS,500 N  Block Rose Street,SndESC,33.13558550,-117.0603728,POSSESS CONTROLLED SUBSTANCE
2007-01-08,19:00:00,MOTOR VEHICLE THEFT,1100  Block Industrial Avenue,SndESC,33.11860617,-117.1043592,TAKE VEHICLE W/O OWNER'S CONSENT/VEHICLE THEFT
2007-01-09,17:00:00,THEFT/LARCENY,300 W  Block Felicita Avenue,SndESC,33.10400941,-117.0743532,PETTY THEFT
2007-01-09,21:00:00,VEHICLE BREAK-IN/THEFT,2000  Block Arboles Place,SndESC,33.09974903,-117.1099282,VEHICLE BREAK-IN/THEFT
2007-01-08,10:54:00,THEFT/LARCENY,800 W  Block Valley Parkway,SndESC,33.09479744,-117.0564742,GRAND THEFT:MONEY/LABOR/PROPERTY OVER $400
2007-01-09,00:04:00,DRUGS/ALCOHOL VIOLATIONS,2400 E  Block Valley Parkway,SndESC,33.16995515,-117.1387812,USE/UNDER INFLUENCE OF CONTROLLED SUBSTANCE
2007-01-09,20:30:00,VEHICLE BREAK-IN/THEFT,600  Block Country Club Lane,SndESC,33.15869566,-117.1008923,VEHICLE BREAK-IN/THEFT
2007-01-10,12:00:00,FRAUD,700 W  Block Grand Avenue,SndESC,33.11737385,-117.0900000,FRAUD
2007-01-08,12:00:00,BURGLARY,1400  Block Alpine Place,SndESC,33.14674330,-117.0739462,RESIDENTIAL BURGLARY
2007-01-09,07:48:00,DRUGS/ALCOHOL VIOLATIONS,500 W  Block Washington Avenue,SndESC,33.12475537,-117.0909320,USE/UNDER INFLUENCE OF CONTROLLED SUBSTANCE
2007-01-09,21:00:00,VEHICLE BREAK-IN/THEFT,1900  Block Sunset Drive,SndESC,33.10111146,-117.0702049,VEHICLE BREAK-IN/THEFT
2007-01-10,12:00:00,FRAUD,900 S  Block Citrus Avenue,SndESC,33.13106150,-117.0378087,FRAUD
2007-01-08,15:00:00,FRAUD,2200  Block Medford Place,SndESC,33.14786304,-117.0537509,FRAUD
2007-01-09,09:30:00,THEFT/LARCENY,200  Block Enterprise Street,SndESC,33.12190508,-117.1154626,PETTY THEFT
2007-01-10,06:53:00,MOTOR VEHICLE THEFT,500  Block Smoketree Glen,SndESC,33.15902490,-117.0987715,TAKE VEHICLE W/O OWNER'S CONSENT/VEHICLE THEFT
2007-01-10,13:08:00,DRUGS/ALCOHOL VIOLATIONS,1600 E  Block Valley Parkway,SndESC,33.16263336,-117.0971264,POSS CONTRL SUB PARAPHERNALIA
2007-01-08,22:00:00,VEHICLE BREAK-IN/THEFT,2000 S  Block Escondido Boulevard,SndESC,33.09892329,-117.0705612,VEHICLE BREAK-IN/THEFT
2007-01-09,20:30:00,DRUGS/ALCOHOL VIOLATIONS,1100 E  Block 05Th Avenue,SndESC,33.12290677,-117.0650916,USE/UNDER INFLUENCE OF CONTROLLED SUBSTANCE
2007-01-10,08:00:00,THEFT/LARCENY,700 W  Block 13Th Avenue,SndESC,33.10613253,-117.0832971,PETTY THEFT
2007-01-10,22:30:00,ASSAULT,1500  Block Orange Place,SndESC,33.10603630,-117.0765733,ASSAULT W/DEADLY WEAPON OTHER THAN FIREARM OR GBI FORCE
2007-01-09,01:45:00,MOTOR VEHICLE THEFT,1200  Block Hagen Oakes Lane,SndESC,33.13429727,-117.1037334,TAKE VEHICLE W/O OWNER'S CONSENT/VEHICLE THEFT
2007-01-09,21:00:00,VANDALISM,2200  Block Bear Valley Parkway,SndESC,33.13553732,-117.0437099,VANDALISM (LESS THAN $400)
2007-01-10,12:00:00,FRAUD,1400  Block Oak Hill Drive,SndESC,33.12615363,-117.0584784,FRAUD
2007-01-11,00:45:00,MOTOR VEHICLE THEFT,1400 E  Block Mission Avenue,SndESC,33.13846522,-117.0664330,TAKE VEHICLE W/O OWNER'S CONSENT/VEHICLE THEFT
2007-01-09,09:00:00,VANDALISM,900 E  Block Mission Avenue,SndESC,33.13421836,-117.0743969,"VANDALISM ($5,000-$50,000)"
2007-01-10,12:05:00,SEX CRIMES,2800 E  Block Valley Parkway,SndESC,33.16995515,-117.1387812,OTHER SEX CRIME
2007-01-10,13:08:00,DRUGS/ALCOHOL VIOLATIONS,1600 E  Block Valley Parkway,SndESC,33.16263336,-117.0971264,POSS CONTRL SUB PARAPHERNALIA
2007-01-11,12:00:00,VEHICLE BREAK-IN/THEFT,400 N  Block Beech Street,SndESC,33.13031630,-117.0687445,VEHICLE BREAK-IN/THEFT
2007-01-09,18:00:00,ROBBERY,1200 E  Block Valley Parkway,SndESC,33.09479744,-117.0564742,COMMERCIAL ROBBERY - NO WEAPON
2007-01-10,14:00:00,THEFT/LARCENY,700 W  Block 13Th Avenue,SndESC,33.10613253,-117.0832971,PETTY THEFT
2007-01-10,19:47:00,BURGLARY,700  Block Bijou Lime Lane,SndESC,33.15415013,-117.0370573,COMMERCIAL BURGLARY
2007-01-11,21:00:00,VEHICLE BREAK-IN/THEFT,200 E  Block Grand Avenue,SndESC,33.12269214,-117.0794249,VEHICLE BREAK-IN/THEFT
2007-01-09,20:00:00,VANDALISM,500 E  Block Mission Avenue,SndESC,33.13186750,-117.0805047,VANDALISM:DAMAGE PROPERTY (MISDEMEANOR)
2007-01-11,18:30:00,VEHICLE BREAK-IN/THEFT,2000 E  Block Grand Avenue,SndESC,33.13466689,-117.0489717,VEHICLE BREAK-IN/THEFT
2007-01-10,23:00:00,MOTOR VEHICLE THEFT,1600 E  Block Washington Avenue,SndESC,33.13747532,-117.0606415,TAKE VEHICLE W/O OWNER'S CONSENT/VEHICLE THEFT
2007-01-11,22:13:00,DUI,500 W  Block 09Th Avenue,SndESC,33.11136821,-117.0825396,DUI ALCOHOL AND/OR DRUGS
2007-01-10,00:15:00,DRUGS/ALCOHOL VIOLATIONS,600 N  Block Escondido Boulevard,SndESC,33.12653352,-117.0883151,TRANSPORT/SELL CONTROLLED SUBSTANCE
2007-01-11,20:00:00,MOTOR VEHICLE THEFT,700 E  Block Mission Avenue,SndESC,33.13300966,-117.0769555,TAKE VEHICLE W/O OWNER'S CONSENT/VEHICLE THEFT
2007-01-11,01:15:00,VEHICLE BREAK-IN/THEFT,600  Block Valley Grove Lane,SndESC,33.09416606,-117.0575623,VEHICLE BREAK-IN/THEFT
2007-01-12,05:40:00,FRAUD,300  Block Lansing Cr Drive,SndESC,33.12681601,-117.0782446,FRAUD
2007-01-10,13:35:00,ASSAULT,1400 N  Block Fig Street,SndESC,33.14382975,-117.0824744,ASSAULT W/DEADLY WEAPON OTHER THAN FIREARM OR GBI FORCE
2007-01-11,20:18:00,BURGLARY,2700 E  Block Valley Parkway,SndESC,33.16995515,-117.1387812,RESIDENTIAL BURGLARY
2007-01-11,21:00:00,MOTOR VEHICLE THEFT,700 W  Block 10Th Avenue,SndESC,33.10916552,-117.0845165,TAKE VEHICLE W/O OWNER'S CONSENT/VEHICLE THEFT
2007-01-12,08:15:00,BURGLARY,900  Block Martin Drive,SndESC,33.13655576,-117.0758661,RESIDENTIAL BURGLARY
2007-01-10,14:17:00,DRUGS/ALCOHOL VIOLATIONS,1600 E  Block Washington Avenue,SndESC,33.13747532,-117.0606415,USE/UNDER INFLUENCE OF CONTROLLED SUBSTANCE
2007-01-12,04:52:00,DRUGS/ALCOHOL VIOLATIONS,300 N  Block Escondido Boulevard,SndESC,33.12240760,-117.0856901,DISORDERLY CONDUCT:  ALCOHOL
2007-01-11,21:30:00,VANDALISM,1300  Block Morning View Drive,SndESC,33.13748963,-117.0959676,"VANDALISM ($5,000-$50,000)"
2007-01-12,10:15:00,DRUGS/ALCOHOL VIOLATIONS,400 N  Block Midway Drive,SndESC,33.13822978,-117.0521922,POSSESS MARIJUANA 28.5 GRAMS OR LESS OR W/NO PRIOR
2007-01-10,22:15:00,WEAPONS,1000 S  Block Orange Street,SndESC,33.11130374,-117.0796536,CARRY CONCEALED DIRK OR DAGGER
2007-01-12,12:30:00,THEFT/LARCENY,1500 N  Block Broadway,SndESC,33.14419850,-117.0902052,GRAND THEFT:MONEY/LABOR/PROPERTY OVER $400
2007-01-11,23:25:00,DRUGS/ALCOHOL VIOLATIONS,500 N  Block Grape Street,SndESC,33.12811129,-117.0762553,POSSESS CONTROLLED SUBSTANCE
2007-01-12,12:00:00,FRAUD,2500  Block Fieldcrest Place,SndESC,33.13698169,-117.0381024,FRAUD
2007-01-10,22:30:00,THEFT/LARCENY,2500  Block Woodland Way,SndESC,33.17592238,-117.1291669,GRAND THEFT:MONEY/LABOR/PROPERTY OVER $400
2007-01-12,17:00:00,MOTOR VEHICLE THEFT,1300  Block Soria Glen,SndESC,33.13789812,-117.0990831,TAKE VEHICLE W/O OWNER'S CONSENT/VEHICLE THEFT
2007-01-11,23:49:00,DRUGS/ALCOHOL VIOLATIONS,1200 N  Block Broadway,SndESC,33.13777657,-117.0886245,PROTECTIVE CUSTODY:DISORDERLY CONDUCT ALCOHOL RELATED
2007-01-12,13:00:00,THEFT/LARCENY,1500 N  Block Broadway,SndESC,33.14419850,-117.0902052,PETTY THEFT
2007-01-11,07:00:00,VEHICLE BREAK-IN/THEFT,300 N  Block Hale Avenue,SndESC,33.11703988,-117.1032432,VEHICLE BREAK-IN/THEFT
2007-01-12,20:10:00,BURGLARY,300 W  Block 13Th Avenue,SndESC,33.10917433,-117.0772263,RESIDENTIAL BURGLARY
2007-01-12,07:30:00,MOTOR VEHICLE THEFT,1600  Block Wilson Avenue,SndESC,33.13989510,-117.0625652,TAKE VEHICLE W/O OWNER'S CONSENT/VEHICLE THEFT
2007-01-12,16:00:00,VANDALISM,900  Block Canterbury Place,SndESC,33.10757967,-117.0923896,VANDALISM ($400 OR MORE)
2007-01-11,10:00:00,MOTOR VEHICLE THEFT,1400 N  Block Broadway,SndESC,33.14179797,-117.0898257,TAKE VEHICLE W/O OWNER'S CONSENT/VEHICLE THEFT
2007-01-12,21:30:00,MOTOR VEHICLE THEFT,600  Block Hoover Street,SndESC,33.13581975,-117.0681136,TAKE VEHICLE W/O OWNER'S CONSENT/VEHICLE THEFT
2007-01-12,15:55:00,ASSAULT,1700  Block Crofton Lane,SndESC,33.13690779,-117.0578957,ASSAULT W/DEADLY WEAPON OTHER THAN FIREARM OR GBI FORCE
2007-01-12,17:00:00,MOTOR VEHICLE THEFT,700 E  Block Mission Avenue,SndESC,33.13300966,-117.0769555,TAKE VEHICLE W/O OWNER'S CONSENT/VEHICLE THEFT
2007-01-11,11:06:00,DRUGS/ALCOHOL VIOLATIONS,500 W  Block Mission Avenue,SndESC,33.12829120,-117.0919918,POSS CONTRL SUB PARAPHERNALIA
2007-01-13,00:00:00,THEFT/LARCENY,2200  Block Bear Valley Parkway,SndESC,33.13553732,-117.0437099,GRAND THEFT:MONEY/LABOR/PROPERTY OVER $400
2007-01-12,17:00:00,VANDALISM,2200  Block Glen Ridge Road,SndESC,33.12963461,-117.0375301,"VANDALISM ($5,000-$50,000)"
2007-01-12,19:00:00,VEHICLE BREAK-IN/THEFT,400  Block Beaumont Glen,SndESC,33.14577561,-117.0959353,VEHICLE BREAK-IN/THEFT
2007-01-11,17:23:00,DRUGS/ALCOHOL VIOLATIONS,600 W  Block Lincoln Avenue,SndESC,33.13085022,-117.0961648,USE/UNDER INFLUENCE OF CONTROLLED SUBSTANCE
2007-01-13,02:30:00,VEHICLE BREAK-IN/THEFT,I-15 Sb Sr-78 Eb,SndESC,33.12873510,-117.0990370,VEHICLE BREAK-IN/THEFT
2007-01-12,17:30:00,MOTOR VEHICLE THEFT,400 E  Block Washington Avenue,SndESC,33.12828277,-117.0795904,TAKE VEHICLE W/O OWNER'S CONSENT/VEHICLE THEFT
2007-01-12,19:28:00,DRUGS/ALCOHOL VIOLATIONS,500  Block Vine Street,SndESC,33.10941936,-117.0925566,POSS CONTROLLED SUBSTANCE FOR SALE
2007-01-11,17:30:00,MOTOR VEHICLE THEFT,700 E  Block Mission Avenue,SndESC,33.13300966,-117.0769555,TAKE VEHICLE W/O OWNER'S CONSENT/VEHICLE THEFT
2007-01-13,14:00:00,VANDALISM,2000 E  Block Grand Avenue,SndESC,33.13466689,-117.0489717,"VANDALISM ($5,000-$50,000)"
2007-01-12,23:10:00,BURGLARY,700  Block Momar Lane,SndESC,33.13165109,-117.0410326,RESIDENTIAL BURGLARY
2007-01-12,20:45:00,VEHICLE BREAK-IN/THEFT,600 N  Block Broadway,SndESC,33.12746526,-117.0840708,VEHICLE BREAK-IN/THEFT
2007-01-12,09:00:00,BURGLARY,1100 E  Block 05Th Avenue,SndESC,33.12290677,-117.0650916,RESIDENTIAL BURGLARY
2007-01-13,14:30:00,VEHICLE BREAK-IN/THEFT,2300  Block Willowbrook Street,SndESC,33.09197704,-117.1157254,VEHICLE BREAK-IN/THEFT
2007-01-13,19:00:00,DUI,1500 S  Block Escondido Boulevard,SndESC,33.10725220,-117.0749521,DUI ALCOHOL AND/OR DRUGS
2007-01-12,21:45:00,VANDALISM,1200  Block Autopark Way,SndESC,33.11663245,-117.1099750,VANDALISM ($400 OR MORE)
2007-01-12,17:00:00,VEHICLE BREAK-IN/THEFT,1400  Block Knoll Park Glen,SndESC,33.10123284,-117.0920018,VEHICLE BREAK-IN/THEFT
2007-01-13,16:00:00,MOTOR VEHICLE THEFT,700 E  Block Mission Avenue,SndESC,33.13300966,-117.0769555,TAKE VEHICLE W/O OWNER'S CONSENT/VEHICLE THEFT
2007-01-13,20:00:00,VEHICLE BREAK-IN/THEFT,700 E  Block Washington Avenue,SndESC,33.12962815,-117.0752668,VEHICLE BREAK-IN/THEFT
2007-01-12,23:00:00,MOTOR VEHICLE THEFT,1700 W  Block 11Th Avenue,SndESC,33.10620519,-117.1023858,TAKE VEHICLE W/O OWNER'S CONSENT/VEHICLE THEFT
2007-01-12,17:20:00,MOTOR VEHICLE THEFT,1300 W  Block Valley Parkway,SndESC,33.09479744,-117.0564742,TAKE VEHICLE W/O OWNER'S CONSENT/VEHICLE THEFT
2007-01-13,19:00:00,VEHICLE BREAK-IN/THEFT,100 W  Block Vermont Avenue,SndESC,33.10239312,-117.0691054,VEHICLE BREAK-IN/THEFT
2007-01-13,23:00:00,BURGLARY,3400  Block Del Lago Boulevard,SndESC,33.07266364,-117.0711770,COMMERCIAL BURGLARY
2007-01-13,12:00:00,VEHICLE BREAK-IN/THEFT,1600  Block Forest Glen,SndESC,33.14580652,-117.0972688,VEHICLE BREAK-IN/THEFT
2007-01-12,18:00:00,THEFT/LARCENY,2300 E  Block Valley Parkway,SndESC,33.16263336,-117.0971264,PETTY THEFT
2007-01-13,19:00:00,VEHICLE BREAK-IN/THEFT,100 E  Block Felicita Avenue,SndESC,33.10597854,-117.0703827,VEHICLE BREAK-IN/THEFT
2007-01-14,01:30:00,VEHICLE BREAK-IN/THEFT,100  Block Encanto Drive,SndESC,33.14087024,-117.0362948,VEHICLE BREAK-IN/THEFT
2007-01-13,17:00:00,THEFT/LARCENY,1000 W  Block El Norte Parkway,SndESC,33.15195756,-117.0423926,PETTY THEFT
2007-01-12,18:00:00,MOTOR VEHICLE THEFT,100  Block Gayland Street,SndESC,33.13338145,-117.0528388,TAKE VEHICLE W/O OWNER'S CONSENT/VEHICLE THEFT
2007-01-13,20:00:00,VEHICLE BREAK-IN/THEFT,2400  Block Shadyridge Avenue,SndESC,33.09607140,-117.1176500,VEHICLE BREAK-IN/THEFT
2007-01-14,01:52:00,DRUGS/ALCOHOL VIOLATIONS,900  Block Del Dios Highway,SndESC,33.10848757,-117.0998157,DISORDERLY CONDUCT:  ALCOHOL
2007-01-13,20:00:00,MOTOR VEHICLE THEFT,1000 S  Block Hale Avenue,SndESC,33.10956448,-117.1088038,TAKE VEHICLE W/O OWNER'S CONSENT/VEHICLE THEFT
2007-01-12,22:59:00,DRUGS/ALCOHOL VIOLATIONS,1500 E  Block Valley Parkway,SndESC,33.09479744,-117.0564742,DISORDERLY CONDUCT:  ALCOHOL
2007-01-13,20:16:00,THEFT/LARCENY,2100 N  Block Mammoth Place,SndESC,33.09979840,-117.1116054,BURGLARY/UNSPECIFIED
2007-01-14,02:02:00,DRUGS/ALCOHOL VIOLATIONS,700  Block Aster Street,SndESC,33.14004480,-117.0600518,POSSESS CONTROLLED SUBSTANCE
2007-01-13,20:55:00,VEHICLE BREAK-IN/THEFT,1400  Block Cortina Circle,SndESC,33.08486307,-117.1005667,VEHICLE BREAK-IN/THEFT
2007-01-13,00:00:00,FRAUD,1100  Block Industrial Avenue,SndESC,33.11860617,-117.1043592,FRAUD
2007-01-13,21:00:00,VANDALISM,2000  Block Winamar Place,SndESC,33.09029497,-117.0954151,VANDALISM ($400 OR MORE)
2007-01-14,04:23:00,BURGLARY,1200  Block Autopark Way,SndESC,33.11663245,-117.1099750,COMMERCIAL BURGLARY
2007-01-13,23:00:00,VANDALISM,600  Block Country Club Lane,SndESC,33.15869566,-117.1008923,VANDALISM ($400 OR MORE)
2007-01-13,01:16:00,ASSAULT,600  Block Waverly Place,SndESC,33.12774244,-117.0827636,ASSAULT W/DEADLY WEAPON OTHER THAN FIREARM OR GBI FORCE
2007-01-14,07:40:00,DRUGS/ALCOHOL VIOLATIONS,1800 E  Block Valley Parkway,SndESC,33.16263336,-117.0971264,POSSESS SYRINGE
2007-01-14,17:00:00,MOTOR VEHICLE THEFT,800 E  Block Mission Avenue,SndESC,33.13355490,-117.0757986,TAKE VEHICLE W/O OWNER'S CONSENT/VEHICLE THEFT
2007-01-14,00:01:00,VANDALISM,1700  Block Crescent Knolls Glen,SndESC,33.09810286,-117.1056942,VANDALISM (LESS THAN $400)
2007-01-13,02:25:00,ASSAULT,200 W  Block El Norte Parkway,SndESC,33.15092171,-117.0424042,BATTERY
2007-01-14,09:15:00,DRUGS/ALCOHOL VIOLATIONS,400 S  Block Spruce Street,SndESC,33.11398988,-117.0888499,PROTECTIVE CUSTODY:DISORDERLY CONDUCT ALCOHOL RELATED
2007-01-15,02:13:00,DUI,300 N  Block Escondido Boulevard,SndESC,33.12240760,-117.0856901,DUI ALCOHOL AND/OR DRUGS
2007-01-14,12:00:00,MOTOR VEHICLE THEFT,700 W  Block Lincoln Avenue,SndESC,33.13085022,-117.0961648,TAKE VEHICLE W/O OWNER'S CONSENT/VEHICLE THEFT
2007-01-13,02:44:00,DUI,1200 E  Block Valley Parkway,SndESC,33.09479744,-117.0564742,DUI ALCOHOL AND/OR DRUGS
2007-01-14,18:00:00,THEFT/LARCENY,1200  Block Borden Road,SndESC,33.13449613,-117.1012149,"GRAND THEFT FIREARM, ANIMAL, ETC."
2007-01-15,11:00:00,MOTOR VEHICLE THEFT,700 N  Block Fig Street,SndESC,33.13202917,-117.0768786,TAKE VEHICLE W/O OWNER'S CONSENT/VEHICLE THEFT
2007-01-14,13:30:00,VEHICLE BREAK-IN/THEFT,1000  Block Ball Avenue,SndESC,33.14180132,-117.0758453,VEHICLE BREAK-IN/THEFT
2007-01-13,03:25:00,ASSAULT,1600  Block Vaquero Glen,SndESC,33.16019035,-117.1180454,THREATEN CRIME WITH INTENT TO TERRORIZE
2007-01-14,23:00:00,VEHICLE BREAK-IN/THEFT,1600  Block High Crest Place,SndESC,33.10839526,-117.0643861,VEHICLE BREAK-IN/THEFT
2007-01-15,11:50:00,FRAUD,300 W  Block Mission Avenue,SndESC,33.12875839,-117.0905005,FRAUD
2007-01-14,13:40:00,THEFT/LARCENY,1500 E  Block Valley Parkway,SndESC,33.09479744,-117.0564742,PETTY THEFT
2007-01-13,13:25:00,MOTOR VEHICLE THEFT,700 E  Block Mission Avenue,SndESC,33.13300966,-117.0769555,TAKE VEHICLE W/O OWNER'S CONSENT/VEHICLE THEFT
2007-01-15,01:36:00,DRUGS/ALCOHOL VIOLATIONS,1300 E  Block Valley Parkway,SndESC,33.09479744,-117.0564742,DISORDERLY CONDUCT:  ALCOHOL
2007-01-15,15:30:00,BURGLARY,1200  Block Stanley Way,SndESC,33.14341643,-117.0737205,RESIDENTIAL BURGLARY
2007-01-14,14:00:00,THEFT/LARCENY,900  Block Sendero Avenue,SndESC,33.14188294,-117.0784088,PETTY THEFT
2007-01-13,16:00:00,VEHICLE BREAK-IN/THEFT,2100  Block Willowbrook Street,SndESC,33.09423409,-117.1178466,VEHICLE BREAK-IN/THEFT
2007-01-15,12:00:00,FRAUD,1900  Block Glennaire Drive,SndESC,33.10215109,-117.0592807,FRAUD
2007-01-15,19:15:00,THEFT/LARCENY,700 N  Block Escondido Boulevard,SndESC,33.12825025,-117.0890261,PETTY THEFT
2007-01-15,17:00:00,THEFT/LARCENY,600 W  Block 09Th Avenue,SndESC,33.11073303,-117.0838089,PETTY THEFT
2007-01-13,18:00:00,VEHICLE BREAK-IN/THEFT,1600  Block Crescent Knolls Glen,SndESC,33.09810286,-117.1056942,VEHICLE BREAK-IN/THEFT
2007-01-15,13:30:00,FRAUD,1700  Block El Rosal Place,SndESC,33.15133028,-117.1171957,FRAUD
2007-01-16,03:39:00,BURGLARY,1500 E  Block Valley Parkway,SndESC,33.09479744,-117.0564742,COMMERCIAL BURGLARY
2007-01-15,17:25:00,FRAUD,2700 E  Block Valley Parkway,SndESC,33.16995515,-117.1387812,FRAUD
2007-01-13,19:00:00,VANDALISM,900  Block Homestead Place,SndESC,33.13812042,-117.1034695,VANDALISM (LESS THAN $400)
2007-01-15,14:00:00,VANDALISM,1400  Block Ronda Place,SndESC,33.13933890,-117.0664543,VANDALISM:DAMAGE PROPERTY (MISDEMEANOR)
2007-01-16,11:00:00,THEFT/LARCENY,500  Block Begonia Street,SndESC,33.13750708,-117.0574599,PETTY THEFT
2007-01-15,20:30:00,MOTOR VEHICLE THEFT,500 N  Block Date Street,SndESC,33.13008168,-117.0721750,TAKE VEHICLE W/O OWNER'S CONSENT/VEHICLE THEFT
2007-01-13,20:00:00,MOTOR VEHICLE THEFT,1800  Block Kenora Drive,SndESC,33.12704296,-117.0494382,TAKE VEHICLE W/O OWNER'S CONSENT/VEHICLE THEFT
2007-01-15,14:26:00,DRUGS/ALCOHOL VIOLATIONS,200 S  Block Broadway,SndESC,33.12051389,-117.0806699,DISORDERLY CONDUCT:  ALCOHOL
2007-01-16,11:55:00,DRUGS/ALCOHOL VIOLATIONS,1500 N  Block Broadway,SndESC,33.14419850,-117.0902052,DISORDERLY CONDUCT:  ALCOHOL
2007-01-15,20:55:00,BURGLARY,1300 E  Block Valley Parkway,SndESC,33.09479744,-117.0564742,COMMERCIAL BURGLARY
2007-01-13,23:00:00,VANDALISM,1900  Block Casa Bonita Way,SndESC,33.09896019,-117.0798912,VANDALISM (LESS THAN $400)
2007-01-15,20:00:00,THEFT/LARCENY,1500 E  Block Valley Parkway,SndESC,33.09479744,-117.0564742,PETTY THEFT
2007-01-16,14:07:00,DRUGS/ALCOHOL VIOLATIONS,300 N  Block Broadway,SndESC,33.12391883,-117.0825018,POSSESS MARIJUANA 28.5 GRAMS OR LESS OR W/NO PRIOR
2007-01-16,03:20:00,BURGLARY,1900 N  Block Iris Lane,SndESC,33.15167778,-117.0960277,COMMERCIAL BURGLARY
2007-01-13,23:15:00,VANDALISM,2200  Block Ritter Place,SndESC,33.08743624,-117.0907926,VANDALISM ($400 OR MORE)
2007-01-15,21:00:00,VEHICLE BREAK-IN/THEFT,700 E  Block Mission Avenue,SndESC,33.13300966,-117.0769555,VEHICLE BREAK-IN/THEFT
2007-01-16,17:30:00,VANDALISM,1500  Block Sterling Court,SndESC,33.12468025,-117.1109135,"VANDALISM ($5,000-$50,000)"
2007-01-16,08:00:00,FRAUD,400 N  Block Hickory Street,SndESC,33.12712376,-117.0774089,FRAUD
2007-01-13,23:36:00,DUI,1300 S  Block Orange Street,SndESC,33.10795278,-117.0772755,DUI ALCOHOL AND/OR DRUGS
2007-01-15,23:30:00,VEHICLE BREAK-IN/THEFT,1600  Block Forest Glen,SndESC,33.14580652,-117.0972688,VEHICLE BREAK-IN/THEFT
2007-01-16,19:10:00,DRUGS/ALCOHOL VIOLATIONS,300 W  Block Felicita Avenue,SndESC,33.10400941,-117.0743532,PROTECTIVE CUSTODY:DISORDERLY CONDUCT ALCOHOL RELATED
2007-01-16,11:55:00,DRUGS/ALCOHOL VIOLATIONS,1500 N  Block Broadway,SndESC,33.14419850,-117.0902052,DISORDERLY CONDUCT:  ALCOHOL
2007-01-14,00:45:00,DUI,400 E  Block 11Th Avenue,SndESC,33.11465507,-117.0714681,DUI ALCOHOL AND/OR DRUGS
2007-01-16,12:30:00,BURGLARY,1500 W  Block Valley Parkway,SndESC,33.09479744,-117.0564742,COMMERCIAL BURGLARY
2007-01-16,19:30:00,SEX CRIMES,2000  Block Aldergrove Avenue,SndESC,33.11698179,-117.1121138,RAPE
2007-01-16,17:30:00,VANDALISM,300 W  Block Felicita Avenue,SndESC,33.10400941,-117.0743532,"VANDALISM ($5,000-$50,000)"
2007-01-14,04:34:00,DUI,500 E  Block Valley Parkway,SndESC,33.09416606,-117.0575623,DUI ALCOHOL AND/OR DRUGS
2007-01-17,10:15:00,DRUGS/ALCOHOL VIOLATIONS,500  Block Smoketree Glen,SndESC,33.15902490,-117.0987715,POSSESS MARIJUANA 28.5 GRAMS OR LESS OR W/NO PRIOR
2007-01-16,20:10:00,VANDALISM,1300  Block Heritage Court,SndESC,33.12346299,-117.0577992,VANDALISM ($400 OR MORE)
2007-01-16,19:15:00,DRUGS/ALCOHOL VIOLATIONS,300 W  Block Felicita Avenue,SndESC,33.10400941,-117.0743532,PROTECTIVE CUSTODY:DISORDERLY CONDUCT ALCOHOL RELATED
2007-01-14,12:00:00,VEHICLE BREAK-IN/THEFT,2000  Block Mission Road,SndESC,33.12976143,-117.1214601,VEHICLE BREAK-IN/THEFT
2007-01-17,15:15:00,ROBBERY,100  Block Espanas Glen,SndESC,33.13683207,-117.0904960,STREET ROBBERY - WEAPON USED
2007-01-16,21:30:00,VEHICLE BREAK-IN/THEFT,2100 E  Block Grand Avenue,SndESC,33.13530863,-117.0472245,VEHICLE BREAK-IN/THEFT
2007-01-17,00:01:00,VANDALISM,400  Block El Rancho Lane,SndESC,33.13377939,-117.0636748,VANDALISM ($400 OR MORE)
2007-01-14,18:10:00,DUI,100 W  Block Washington Avenue,SndESC,33.12664787,-117.0848454,DUI/RECKLESS DRIVING W/PRIOR SPECIFIC CONVICTIONS
2007-01-17,16:00:00,VEHICLE BREAK-IN/THEFT,800 N  Block Gamble Street,SndESC,33.13282855,-117.0812553,VEHICLE BREAK-IN/THEFT
2007-01-16,21:30:00,VANDALISM,900  Block Centurion Place,SndESC,33.13486870,-117.1024381,"VANDALISM ($5,000-$50,000)"
2007-01-17,02:07:00,DRUGS/ALCOHOL VIOLATIONS,500 N  Block Grape Street,SndESC,33.12811129,-117.0762553,USE/UNDER INFLUENCE OF CONTROLLED SUBSTANCE
2007-01-14,19:00:00,THEFT/LARCENY,500 N  Block Tulip Street,SndESC,33.11995659,-117.0994381,GRAND THEFT:MONEY/LABOR/PROPERTY OVER $400
2007-01-18,09:45:00,FRAUD,1300 W  Block 09Th Avenue,SndESC,33.10923128,-117.0999414,FRAUD
2007-01-17,08:10:00,BURGLARY,400 S  Block Juniper Street,SndESC,33.12008577,-117.0766713,RESIDENTIAL BURGLARY
2007-01-17,12:00:00,VANDALISM,3300  Block Bear Valley Parkway,SndESC,33.07587963,-117.0580289,VANDALISM ($400 OR MORE)
2007-01-14,22:00:00,MOTOR VEHICLE THEFT,700 E  Block Mission Avenue,SndESC,33.13300966,-117.0769555,TAKE VEHICLE W/O OWNER'S CONSENT/VEHICLE THEFT
2007-01-18,12:00:00,VANDALISM,1500 E  Block Grand Avenue,SndESC,33.13032956,-117.0583774,"VANDALISM ($5,000-$50,000)"
2007-01-17,10:15:00,FRAUD,500 W  Block Mission Avenue,SndESC,33.12829120,-117.0919918,FRAUD
2007-01-17,13:28:00,VANDALISM,700  Block Ball Avenue,SndESC,33.14003174,-117.0794859,"VANDALISM ($5,000-$50,000)"
2007-01-15,16:00:00,DRUGS/ALCOHOL VIOLATIONS,1100 S  Block Citrus Avenue,SndESC,33.12815145,-117.0379339,PROTECTIVE CUSTODY:DISORDERLY CONDUCT ALCOHOL RELATED
2007-01-18,20:00:00,MOTOR VEHICLE THEFT,400  Block Bancroft Glen,SndESC,33.14388983,-117.0446118,TAKE VEHICLE W/O OWNER'S CONSENT/VEHICLE THEFT
2007-01-17,13:00:00,VEHICLE BREAK-IN/THEFT,2700  Block Crownpoint Place,SndESC,33.13221159,-117.0307436,VEHICLE BREAK-IN/THEFT
2007-01-17,13:52:00,DRUGS/ALCOHOL VIOLATIONS,700 N  Block Broadway,SndESC,33.12955064,-117.0849906,POSS CONTRL SUB PARAPHERNALIA
2007-01-15,16:46:00,THEFT/LARCENY,1200  Block Autopark Way,SndESC,33.11663245,-117.1099750,PETTY THEFT
2007-01-18,20:20:00,DRUGS/ALCOHOL VIOLATIONS,2100 S  Block Escondido Boulevard,SndESC,33.09798458,-117.0708010,USE/UNDER INFLUENCE OF CONTROLLED SUBSTANCE
2007-01-17,13:10:00,THEFT/LARCENY,1400 E  Block Valley Parkway,SndESC,33.09479744,-117.0564742,PETTY THEFT
2007-01-17,14:15:00,THEFT/LARCENY,1500 W  Block Valley Parkway,SndESC,33.09479744,-117.0564742,PETTY THEFT
2007-01-15,18:00:00,MOTOR VEHICLE THEFT,1200  Block Borden Road,SndESC,33.13449613,-117.1012149,TAKE VEHICLE W/O OWNER'S CONSENT/VEHICLE THEFT
2007-01-18,21:00:00,VEHICLE BREAK-IN/THEFT,700 S  Block Pine Street,SndESC,33.11329350,-117.0829498,VEHICLE BREAK-IN/THEFT
2007-01-17,16:00:00,VANDALISM,1000 W  Block El Norte Parkway,SndESC,33.15195756,-117.0423926,VANDALISM ($400 OR MORE)
2007-01-17,21:00:00,VEHICLE BREAK-IN/THEFT,800 N  Block Gamble Street,SndESC,33.13282855,-117.0812553,VEHICLE BREAK-IN/THEFT
2007-01-15,20:33:00,DRUGS/ALCOHOL VIOLATIONS,300 W  Block Felicita Avenue,SndESC,33.10400941,-117.0743532,DISORDERLY CONDUCT:  ALCOHOL
2007-01-19,09:30:00,THEFT/LARCENY,3300  Block Bear Valley Parkway,SndESC,33.07587963,-117.0580289,PETTY THEFT
2007-01-17,16:55:00,DRUGS/ALCOHOL VIOLATIONS,1500 E  Block Grand Avenue,SndESC,33.13032956,-117.0583774,POSSESS SYRINGE
2007-01-17,21:00:00,VANDALISM,700 E  Block Valley Parkway,SndESC,33.09479744,-117.0564742,VANDALISM ($400 OR MORE)
2007-01-16,02:00:00,VANDALISM,600  Block Rock Springs Road,SndESC,33.12461762,-117.0966251,VANDALISM (LESS THAN $400)
2007-01-19,13:50:00,THEFT/LARCENY,1200  Block Autopark Way,SndESC,33.11663245,-117.1099750,PETTY THEFT
2007-01-17,18:00:00,MOTOR VEHICLE THEFT,700  Block Elmwood Drive,SndESC,33.13069804,-117.0751876,TAKE VEHICLE W/O OWNER'S CONSENT/VEHICLE THEFT
2007-01-18,17:00:00,VANDALISM,200  Block Market Place,SndESC,33.12009329,-117.1111116,VANDALISM ($400 OR MORE)
2007-01-16,12:00:00,FRAUD,1000 W  Block El Norte Parkway,SndESC,33.15195756,-117.0423926,FRAUD
2007-01-19,16:00:00,VANDALISM,1800 E  Block Grand Avenue,SndESC,33.13282391,-117.0529084,MALICIOUS MISCHIEF/VANDALISM(MISDEMEANOR)
2007-01-17,21:00:00,THEFT/LARCENY,2000  Block Montego Avenue,SndESC,33.15690935,-117.1034645,PETTY THEFT
2007-01-18,20:42:00,DUI,1400  Block Rimrock Drive,SndESC,33.15063361,-117.0690564,DUI ALCOHOL AND/OR DRUGS
2007-01-16,12:00:00,THEFT/LARCENY,1300 E  Block Valley Parkway,SndESC,33.09479744,-117.0564742,BURGLARY/UNSPECIFIED
2007-01-19,19:00:00,ASSAULT,1200 N  Block Broadway,SndESC,33.13777657,-117.0886245,THREATEN CRIME WITH INTENT TO TERRORIZE
2007-01-17,21:00:00,MOTOR VEHICLE THEFT,900 S  Block Tulip Street,SndESC,33.10883284,-117.0870142,TAKE VEHICLE W/O OWNER'S CONSENT/VEHICLE THEFT
2007-01-18,22:45:00,DUI,300 W  Block 13Th Avenue,SndESC,33.10917433,-117.0772263,DRIVING UNDER INFLUENCE WITHIN 10 YEARS OF PRIOR FELONY DUI
2007-01-16,15:10:00,THEFT/LARCENY,1800  Block Kingston Drive,SndESC,33.12894689,-117.0505780,PETTY THEFT
2007-01-20,00:40:00,DRUGS/ALCOHOL VIOLATIONS,300 W  Block Washington Avenue,SndESC,33.12551264,-117.0884858,POSSESS CONTROLLED SUBSTANCE
2007-01-17,21:30:00,DRUGS/ALCOHOL VIOLATIONS,2400 E  Block Valley Parkway,SndESC,33.16995515,-117.1387812,PROTECTIVE CUSTODY:DISORDERLY CONDUCT ALCOHOL RELATED
2007-01-19,03:00:00,VEHICLE BREAK-IN/THEFT,2200 N  Block Broadway,SndESC,33.15898613,-117.0925860,VEHICLE BREAK-IN/THEFT
2007-01-16,17:30:00,VEHICLE BREAK-IN/THEFT,1500  Block Sterling Court,SndESC,33.12468025,-117.1109135,VEHICLE BREAK-IN/THEFT
2007-01-20,06:00:00,VEHICLE BREAK-IN/THEFT,300 W  Block El Norte Parkway,SndESC,33.15092171,-117.0424042,VEHICLE BREAK-IN/THEFT
2007-01-18,12:00:00,VANDALISM,800 S  Block Maple Street,SndESC,33.11445069,-117.0782218,"VANDALISM ($5,000-$50,000)"
2007-01-19,14:58:00,SEX CRIMES,200  Block Crest Street,SndESC,33.13100533,-117.0879329,OTHER SEX CRIME
2007-01-16,20:00:00,VANDALISM,900  Block Del Dios Highway,SndESC,33.10848757,-117.0998157,VANDALISM ($400 OR MORE)
2007-01-20,13:56:00,DRUGS/ALCOHOL VIOLATIONS,600 N  Block Broadway,SndESC,33.12746526,-117.0840708,DISORDERLY CONDUCT:  ALCOHOL
2007-01-18,20:30:00,MOTOR VEHICLE THEFT,400 N  Block Citrus Avenue,SndESC,33.14244955,-117.0452279,TAKE VEHICLE W/O OWNER'S CONSENT/VEHICLE THEFT
2007-01-19,17:00:00,MOTOR VEHICLE THEFT,800  Block Oleander Place,SndESC,33.14128178,-117.0631808,TAKE VEHICLE W/O OWNER'S CONSENT/VEHICLE THEFT
2007-01-17,14:30:00,BURGLARY,1900  Block Woodland Glen,SndESC,33.15285569,-117.0655537,RESIDENTIAL BURGLARY
2007-01-20,14:10:00,THEFT/LARCENY,1300 E  Block Valley Parkway,SndESC,33.09479744,-117.0564742,PETTY THEFT
2007-01-18,21:03:00,DRUGS/ALCOHOL VIOLATIONS,300 E  Block Park Avenue,SndESC,33.12951826,-117.0821041,PROTECTIVE CUSTODY:DISORDERLY CONDUCT ALCOHOL RELATED
2007-01-19,19:21:00,THEFT/LARCENY,1300 E  Block Grand Avenue,SndESC,33.12815611,-117.0630822,PETTY THEFT
2007-01-17,15:00:00,THEFT/LARCENY,100 E  Block 03Rd Avenue,SndESC,33.12018229,-117.0795008,GRAND THEFT:MONEY/LABOR/PROPERTY OVER $400
2007-01-20,19:20:00,MOTOR VEHICLE THEFT,1500  Block Tanglewood Lane,SndESC,33.10757015,-117.0955307,TAKE VEHICLE W/O OWNER'S CONSENT/VEHICLE THEFT
2007-01-19,08:20:00,BURGLARY,1500 S  Block Juniper Street,SndESC,33.11089517,-117.0701735,RESIDENTIAL BURGLARY
2007-01-19,21:42:00,ROBBERY,700 E  Block Valley Parkway,SndESC,33.09479744,-117.0564742,COMMERCIAL ROBBERY - NO WEAPON
2007-01-17,19:30:00,SEX CRIMES,400 N  Block Escondido Boulevard,SndESC,33.12363360,-117.0865625,PROSTITUTION
2007-01-21,12:30:00,ASSAULT,2500 E  Block Valley Parkway,SndESC,33.16995515,-117.1387812,BATTERY
2007-01-19,12:00:00,SEX CRIMES,1400  Block Granger Avenue,SndESC,33.14406556,-117.0694609,OTHER SEX CRIME
2007-01-19,22:00:00,MOTOR VEHICLE THEFT,1500 E  Block Grand Avenue,SndESC,33.13032956,-117.0583774,TAKE VEHICLE W/O OWNER'S CONSENT/VEHICLE THEFT
2007-01-17,21:00:00,DRUGS/ALCOHOL VIOLATIONS,600 E  Block Valley Parkway,SndESC,33.09416606,-117.0575623,PROTECTIVE CUSTODY:DISORDERLY CONDUCT ALCOHOL RELATED
2007-01-21,16:00:00,VANDALISM,900 N  Block Fig Street,SndESC,33.13499392,-117.0781787,VANDALISM (LESS THAN $400)
2007-01-19,14:20:00,BURGLARY,1600 S  Block Juniper Street,SndESC,33.10790649,-117.0690403,RESIDENTIAL BURGLARY
2007-01-19,22:03:00,THEFT/LARCENY,2400 E  Block Valley Parkway,SndESC,33.16995515,-117.1387812,PETTY THEFT
2007-01-17,22:24:00,ASSAULT,400 N  Block Rose Street,SndESC,33.13459653,-117.0598811,BATTERY
2007-01-21,18:15:00,DRUGS/ALCOHOL VIOLATIONS,200 E  Block 02Nd Avenue,SndESC,33.12177024,-117.0787776,DISORDERLY CONDUCT:  ALCOHOL
2007-01-19,14:58:00,SEX CRIMES,200  Block Crest Street,SndESC,33.13100533,-117.0879329,PROSTITUTION
2007-01-20,01:00:00,MOTOR VEHICLE THEFT,900  Block Goldenrod Street,SndESC,33.14551889,-117.0583255,TAKE VEHICLE W/O OWNER'S CONSENT/VEHICLE THEFT
2007-01-18,00:30:00,MOTOR VEHICLE THEFT,600  Block Rock Springs Road,SndESC,33.12461762,-117.0966251,TAKE VEHICLE W/O OWNER'S CONSENT/VEHICLE THEFT
2007-01-21,18:30:00,MOTOR VEHICLE THEFT,1900 E  Block Grand Avenue,SndESC,33.13421776,-117.0499637,TAKE VEHICLE W/O OWNER'S CONSENT/VEHICLE THEFT
2007-01-19,15:30:00,SEX CRIMES,800 N  Block Broadway,SndESC,33.13099202,-117.0856299,PROSTITUTION
2007-01-20,08:02:00,ASSAULT,300 W  Block 15Th Avenue,SndESC,33.10751436,-117.0757455,ASSAULT W/DEADLY WEAPON OTHER THAN FIREARM OR GBI FORCE
2007-01-18,12:00:00,FRAUD,800 E  Block 04Th Avenue,SndESC,33.12266469,-117.0694148,FRAUD
2007-01-21,20:00:00,BURGLARY,1000  Block Park Hill Drive,SndESC,33.11679061,-117.0679868,RESIDENTIAL BURGLARY
2007-01-19,16:00:00,VEHICLE BREAK-IN/THEFT,Del Dios Highway W 09Th Avenue,SndESC,33.10848757,-117.0998157,VEHICLE BREAK-IN/THEFT
2007-01-20,18:50:00,BURGLARY,1500 N  Block Broadway,SndESC,33.14419850,-117.0902052,COMMERCIAL BURGLARY
2007-01-18,12:25:00,DRUGS/ALCOHOL VIOLATIONS,1500  Block Magnolia Place,SndESC,33.14198856,-117.0664593,POSSESS CONTROLLED SUBSTANCE
2007-01-21,22:10:00,DUI,1500  Block Orange Place,SndESC,33.10603630,-117.0765733,DUI ALCOHOL AND/OR DRUGS
2007-01-19,16:25:00,ASSAULT,200 E  Block Grand Avenue,SndESC,33.12269214,-117.0794249,ASSAULT W/DEADLY WEAPON OTHER THAN FIREARM OR GBI FORCE
2007-01-20,22:15:00,VEHICLE BREAK-IN/THEFT,1900  Block Bienvenido Lane,SndESC,33.15456327,-117.0891830,VEHICLE BREAK-IN/THEFT
2007-01-18,14:00:00,MOTOR VEHICLE THEFT,600 N  Block Escondido Boulevard,SndESC,33.12653352,-117.0883151,TAKE VEHICLE W/O OWNER'S CONSENT/VEHICLE THEFT
2007-01-22,13:15:00,WEAPONS,2700  Block Reed Road,SndESC,33.13430825,-117.0319284,POSSESS WEAPON/ETC AT SCHOOL
2007-01-19,17:00:00,MOTOR VEHICLE THEFT,300 E  Block Park Avenue,SndESC,33.12951826,-117.0821041,TAKE VEHICLE W/O OWNER'S CONSENT/VEHICLE THEFT
2007-01-21,01:39:00,DUI,1300 E  Block Valley Parkway,SndESC,33.09479744,-117.0564742,DUI ALCOHOL AND/OR DRUGS
2007-01-18,16:15:00,MOTOR VEHICLE THEFT,600  Block Beechwood Street,SndESC,33.13330333,-117.0696343,TAKE VEHICLE W/O OWNER'S CONSENT/VEHICLE THEFT
2007-01-22,13:19:00,ASSAULT,1700 S  Block Escondido Boulevard,SndESC,33.10308090,-117.0719897,ASSAULT W/DEADLY WEAPON OTHER THAN FIREARM OR GBI FORCE
2007-01-19,20:08:00,DRUGS/ALCOHOL VIOLATIONS,2200 E  Block Valley Parkway,SndESC,33.16263336,-117.0971264,USE/UNDER INFLUENCE OF CONTROLLED SUBSTANCE
2007-01-21,02:38:00,DUI,900 N  Block Fig Street,SndESC,33.13499392,-117.0781787,DUI ALCOHOL AND/OR DRUGS
2007-01-18,17:00:00,MOTOR VEHICLE THEFT,400 E  Block Washington Avenue,SndESC,33.12828277,-117.0795904,TAKE VEHICLE W/O OWNER'S CONSENT/VEHICLE THEFT
2007-01-22,14:30:00,VANDALISM,600  Block Terrace Avenue,SndESC,33.14387066,-117.0834770,VANDALISM:DAMAGE PROPERTY (MISDEMEANOR)
2007-01-19,21:00:00,SEX CRIMES,2800 E  Block Valley Parkway,SndESC,33.16995515,-117.1387812,OTHER SEX CRIME
2007-01-21,15:37:00,DRUGS/ALCOHOL VIOLATIONS,200 E  Block Park Avenue,SndESC,33.12905561,-117.0836074,DISORDERLY CONDUCT:  ALCOHOL
2007-01-19,13:50:00,THEFT/LARCENY,1400 W  Block 09Th Avenue,SndESC,33.11004151,-117.1019086,GRAND THEFT/UNSPECIFIED
2007-01-22,15:38:00,ROBBERY,1400  Block Wilson Avenue,SndESC,33.13834873,-117.0651317,STREET ROBBERY - NO WEAPON
2007-01-19,23:00:00,THEFT/LARCENY,1400  Block Austin Way,SndESC,33.12258126,-117.0458953,TAMPER WITH AUTO
2007-01-21,19:30:00,VEHICLE BREAK-IN/THEFT,1300 W  Block 11Th Avenue,SndESC,33.10504185,-117.0911988,VEHICLE BREAK-IN/THEFT
2007-01-19,16:48:00,DRUGS/ALCOHOL VIOLATIONS,1300 E  Block El Norte Parkway,SndESC,33.15195756,-117.0423926,DISORDERLY CONDUCT:  ALCOHOL
2007-01-22,17:10:00,ROBBERY,600 E  Block Valley Parkway,SndESC,33.09416606,-117.0575623,COMMERCIAL ROBBERY - WEAPON USED
2007-01-20,03:00:00,SEX CRIMES,700 W  Block Grand Avenue,SndESC,33.11737385,-117.0900000,RAPE
2007-01-21,21:30:00,VEHICLE BREAK-IN/THEFT,600 S  Block Broadway,SndESC,33.11693051,-117.0781162,VEHICLE BREAK-IN/THEFT
2007-01-19,17:10:00,DRUGS/ALCOHOL VIOLATIONS,200 E  Block Park Avenue,SndESC,33.12905561,-117.0836074,DISORDERLY CONDUCT:  ALCOHOL
2007-01-22,17:30:00,DRUGS/ALCOHOL VIOLATIONS,1300 E  Block El Norte Parkway,SndESC,33.15195756,-117.0423926,POSSESS MARIJUANA 28.5 GRAMS OR LESS OR W/NO PRIOR
2007-01-20,06:15:00,ROBBERY,300 W  Block 06Th Avenue,SndESC,33.11544587,-117.0816736,STREET ROBBERY - NO WEAPON
2007-01-21,23:00:00,VEHICLE BREAK-IN/THEFT,400  Block Elkhorn Lane,SndESC,33.15444731,-117.0978624,VEHICLE BREAK-IN/THEFT
2007-01-19,18:00:00,VEHICLE BREAK-IN/THEFT,200  Block Skyridge Lane,SndESC,33.16215543,-117.0954885,VEHICLE BREAK-IN/THEFT
2007-01-22,20:00:00,VANDALISM,400 E  Block Washington Avenue,SndESC,33.12828277,-117.0795904,VANDALISM (LESS THAN $400)
2007-01-20,11:38:00,DRUGS/ALCOHOL VIOLATIONS,1900  Block Sunset Drive,SndESC,33.10111146,-117.0702049,DISORDERLY CONDUCT:  ALCOHOL
2007-01-22,09:20:00,VANDALISM,2400  Block Glen Ridge Road,SndESC,33.12988774,-117.0351389,VANDALISM ($400 OR MORE)
2007-01-19,18:40:00,DRUGS/ALCOHOL VIOLATIONS,700 W  Block Valley Parkway,SndESC,33.09479744,-117.0564742,POSSESS MARIJUANA 28.5 GRAMS OR LESS OR W/NO PRIOR
2007-01-22,21:40:00,VEHICLE BREAK-IN/THEFT,400 E  Block Washington Avenue,SndESC,33.12828277,-117.0795904,VEHICLE BREAK-IN/THEFT
2007-01-20,18:15:00,VEHICLE BREAK-IN/THEFT,1300 E  Block Valley Parkway,SndESC,33.09479744,-117.0564742,VEHICLE BREAK-IN/THEFT
2007-01-22,12:55:00,DRUGS/ALCOHOL VIOLATIONS,400 N  Block Rose Street,SndESC,33.13459653,-117.0598811,POSS CONTRL SUB PARAPHERNALIA
2007-01-19,21:30:00,BURGLARY,300  Block Eastridge Lane,SndESC,33.16101544,-117.0962887,RESIDENTIAL BURGLARY
2007-01-22,23:30:00,MOTOR VEHICLE THEFT,1300  Block Morning View Drive,SndESC,33.13748963,-117.0959676,TAKE VEHICLE W/O OWNER'S CONSENT/VEHICLE THEFT
2007-01-20,20:00:00,VANDALISM,300 W  Block El Norte Parkway,SndESC,33.15092171,-117.0424042,VANDALISM (LESS THAN $400)
2007-01-22,17:00:00,MOTOR VEHICLE THEFT,100 S  Block Midway Drive,SndESC,33.13408407,-117.0495899,TAKE VEHICLE W/O OWNER'S CONSENT/VEHICLE THEFT
2007-01-19,21:49:00,DUI,2400  Block Eucalyptus Avenue,SndESC,33.08390473,-117.1040565,DUI ALCOHOL AND/OR DRUGS
2007-01-23,00:01:00,VEHICLE BREAK-IN/THEFT,200 E  Block Park Avenue,SndESC,33.12905561,-117.0836074,VEHICLE BREAK-IN/THEFT
2007-01-21,03:00:00,VEHICLE BREAK-IN/THEFT,1000 N  Block Broadway,SndESC,33.13499581,-117.0873906,VEHICLE BREAK-IN/THEFT
2007-01-22,20:00:00,VEHICLE BREAK-IN/THEFT,1500  Block Robyn Drive,SndESC,33.11053075,-117.0641567,VEHICLE BREAK-IN/THEFT
2007-01-20,06:30:00,ASSAULT,1600 E  Block El Norte Parkway,SndESC,33.15195756,-117.0423926,ASSAULT W/DEADLY WEAPON OTHER THAN FIREARM OR GBI FORCE
2007-01-23,07:35:00,MOTOR VEHICLE THEFT,800  Block Juniper Street,SndESC,33.11649833,-117.0741303,TAKE VEHICLE W/O OWNER'S CONSENT/VEHICLE THEFT
2007-01-21,12:00:00,FRAUD,2100  Block Splendorwood Place,SndESC,33.15961107,-117.0880840,FRAUD
2007-01-22,20:30:00,VEHICLE BREAK-IN/THEFT,300 W  Block El Norte Parkway,SndESC,33.15092171,-117.0424042,VEHICLE BREAK-IN/THEFT
2007-01-20,11:00:00,VANDALISM,200 W  Block 05Th Avenue,SndESC,33.11702137,-117.0809651,VANDALISM (LESS THAN $400)
2007-01-23,07:50:00,VANDALISM,300  Block Waverly Place,SndESC,33.12449464,-117.0813429,MALICIOUS MISCHIEF/VANDALISM(MISDEMEANOR)
2007-01-21,19:33:00,DUI,1700 E  Block Valley Parkway,SndESC,33.16263336,-117.0971264,DUI ALCOHOL AND/OR DRUGS
2007-01-23,08:37:00,THEFT/LARCENY,1200  Block Autopark Way,SndESC,33.11663245,-117.1099750,PETTY THEFT
2007-01-20,15:00:00,THEFT/LARCENY,1800 E  Block Valley Parkway,SndESC,33.16263336,-117.0971264,PETTY THEFT
2007-01-23,10:30:00,MOTOR VEHICLE THEFT,1000  Block Rock Springs Road,SndESC,33.13014541,-117.0994223,TAKE VEHICLE W/O OWNER'S CONSENT/VEHICLE THEFT
2007-01-21,20:00:00,VEHICLE BREAK-IN/THEFT,300  Block Sunflower Glen,SndESC,33.15828039,-117.0893478,VEHICLE BREAK-IN/THEFT
2007-01-23,15:00:00,DRUGS/ALCOHOL VIOLATIONS,700  Block Hoover Street,SndESC,33.13581975,-117.0681136,USE/UNDER INFLUENCE OF CONTROLLED SUBSTANCE
2007-01-20,16:30:00,THEFT/LARCENY,1500 W  Block Valley Parkway,SndESC,33.09479744,-117.0564742,BURGLARY/UNSPECIFIED
2007-01-23,12:00:00,FRAUD,900 N  Block Broadway,SndESC,33.13337200,-117.0866750,FRAUD
2007-01-21,20:30:00,ASSAULT,1700 E  Block Valley Parkway,SndESC,33.16263336,-117.0971264,ASSAULT W/DEADLY WEAPON OTHER THAN FIREARM OR GBI FORCE
2007-01-23,17:00:00,BURGLARY,400 S  Block Hickory Street,SndESC,33.12082643,-117.0744099,RESIDENTIAL BURGLARY
2007-01-20,17:00:00,VEHICLE BREAK-IN/THEFT,3400 E  Block Valley Parkway,SndESC,33.16995515,-117.1387812,VEHICLE BREAK-IN/THEFT
2007-01-23,19:40:00,MOTOR VEHICLE THEFT,1200  Block Hoover Street,SndESC,33.14446825,-117.0733951,TAKE VEHICLE W/O OWNER'S CONSENT/VEHICLE THEFT
2007-01-21,21:20:00,ASSAULT,1000  Block Via Lomita,SndESC,33.14483022,-117.0646153,BATTERY
2007-01-23,19:00:00,VANDALISM,2200  Block Glen Ridge Road,SndESC,33.12963461,-117.0375301,VANDALISM ($400 OR MORE)
2007-01-20,19:00:00,VEHICLE BREAK-IN/THEFT,1100 N  Block Escondido Boulevard,SndESC,33.13362873,-117.0913783,VEHICLE BREAK-IN/THEFT
2007-01-23,20:00:00,VANDALISM,300  Block Roundtree Glen,SndESC,33.15783187,-117.0971931,"VANDALISM ($5,000-$50,000)"
2007-01-22,08:30:00,VEHICLE BREAK-IN/THEFT,900 N  Block Fig Street,SndESC,33.13499392,-117.0781787,VEHICLE BREAK-IN/THEFT
2007-01-23,23:30:00,MOTOR VEHICLE THEFT,1100 W  Block 11Th Avenue,SndESC,33.10595035,-117.0885444,TAKE VEHICLE W/O OWNER'S CONSENT/VEHICLE THEFT
2007-01-20,22:05:00,DRUGS/ALCOHOL VIOLATIONS,1600 E  Block Valley Parkway,SndESC,33.16263336,-117.0971264,PROTECTIVE CUSTODY:DISORDERLY CONDUCT ALCOHOL RELATED
2007-01-23,22:30:00,SEX CRIMES,100 W  Block 05Th Avenue,SndESC,33.11770804,-117.0795966,OTHER SEX CRIME
2007-01-22,10:39:00,WEAPONS,2300 E  Block Valley Parkway,SndESC,33.16263336,-117.0971264,CARRY CONCEALED DIRK OR DAGGER
2007-01-24,00:01:00,THEFT/LARCENY,100  Block Gayland Street,SndESC,33.13338145,-117.0528388,GRAND THEFT:MONEY/LABOR/PROPERTY OVER $400
2007-01-21,07:45:00,VEHICLE BREAK-IN/THEFT,500  Block Sandalwood Place,SndESC,33.14671681,-117.0417462,VEHICLE BREAK-IN/THEFT
2007-01-24,00:01:00,VEHICLE BREAK-IN/THEFT,1200 E  Block Grand Avenue,SndESC,33.12752468,-117.0644972,VEHICLE BREAK-IN/THEFT
2007-01-22,12:00:00,FRAUD,1200 N  Block Escondido Boulevard,SndESC,33.13651098,-117.0926352,FRAUD
2007-01-24,01:35:00,VANDALISM,900  Block Howard Avenue,SndESC,33.11209871,-117.1109363,"VANDALISM ($5,000-$50,000)"
2007-01-21,10:30:00,VEHICLE BREAK-IN/THEFT,2200  Block Bear Valley Parkway,SndESC,33.13553732,-117.0437099,VEHICLE BREAK-IN/THEFT
2007-01-24,02:21:00,DRUGS/ALCOHOL VIOLATIONS,400 W  Block Mission Avenue,SndESC,33.12875839,-117.0905005,USE/UNDER INFLUENCE OF CONTROLLED SUBSTANCE
2007-01-22,20:00:00,MOTOR VEHICLE THEFT,700 E  Block Mission Avenue,SndESC,33.13300966,-117.0769555,TAKE VEHICLE W/O OWNER'S CONSENT/VEHICLE THEFT
2007-01-24,10:00:00,SEX CRIMES,3300  Block Bear Valley Parkway,SndESC,33.07587963,-117.0580289,OTHER SEX CRIME
2007-01-21,14:30:00,THEFT/LARCENY,1200  Block Autopark Way,SndESC,33.11663245,-117.1099750,PETTY THEFT
2007-01-24,11:00:00,THEFT/LARCENY,1200  Block Autopark Way,SndESC,33.11663245,-117.1099750,PETTY THEFT
2007-01-22,20:30:00,FRAUD,1300 N  Block Fig Street,SndESC,33.14282943,-117.0817764,FRAUD
2007-01-24,12:00:00,BURGLARY,1000 W  Block 09Th Avenue,SndESC,33.10806007,-117.0893712,RESIDENTIAL BURGLARY
2007-01-21,15:20:00,VEHICLE BREAK-IN/THEFT,3300  Block Bear Valley Parkway,SndESC,33.07587963,-117.0580289,VEHICLE BREAK-IN/THEFT
2007-01-24,12:00:00,THEFT/LARCENY,300 W  Block 05Th Avenue,SndESC,33.11634581,-117.0823158,PETTY THEFT
2007-01-23,07:37:00,MOTOR VEHICLE THEFT,1300 S  Block Citrus Avenue,SndESC,33.12599735,-117.0389935,TAKE VEHICLE W/O OWNER'S CONSENT/VEHICLE THEFT
2007-01-24,15:00:00,MOTOR VEHICLE THEFT,1300 E  Block Washington Avenue,SndESC,33.13532165,-117.0642444,TAKE VEHICLE W/O OWNER'S CONSENT/VEHICLE THEFT
2007-01-21,16:53:00,MOTOR VEHICLE THEFT,400 E  Block Mission Avenue,SndESC,33.13162034,-117.0812945,TAKE VEHICLE W/O OWNER'S CONSENT/VEHICLE THEFT
2007-01-24,15:20:00,VANDALISM,300 W  Block 04Th Avenue,SndESC,33.11725535,-117.0829580,VANDALISM ($400 OR MORE)
2007-01-23,12:00:00,SEX CRIMES,3300  Block Bear Valley Parkway,SndESC,33.07587963,-117.0580289,OTHER SEX CRIME
2007-01-24,19:00:00,THEFT/LARCENY,1100 N  Block Escondido Boulevard,SndESC,33.13362873,-117.0913783,PETTY THEFT
2007-01-21,17:00:00,MOTOR VEHICLE THEFT,400 N  Block Hickory Street,SndESC,33.12712376,-117.0774089,TAKE VEHICLE W/O OWNER'S CONSENT/VEHICLE THEFT
2007-01-24,16:35:00,DUI,2100 E  Block Valley Parkway,SndESC,33.16263336,-117.0971264,DUI ALCOHOL AND/OR DRUGS
2007-01-23,12:50:00,BURGLARY,600  Block Fern Street,SndESC,33.14213878,-117.0565290,RESIDENTIAL BURGLARY
2007-01-24,19:00:00,MOTOR VEHICLE THEFT,2400  Block Heatherwood Court,SndESC,33.16899356,-117.0830311,TAKE VEHICLE W/O OWNER'S CONSENT/VEHICLE THEFT
2007-01-21,22:30:00,MOTOR VEHICLE THEFT,700 E  Block 07Th Avenue,SndESC,33.11928197,-117.0716275,TAKE VEHICLE W/O OWNER'S CONSENT/VEHICLE THEFT
2007-01-24,19:44:00,THEFT/LARCENY,1600 E  Block Valley Parkway,SndESC,33.16263336,-117.0971264,BURGLARY/UNSPECIFIED
2007-01-23,19:00:00,VANDALISM,1800  Block Sheridan Avenue,SndESC,33.15356230,-117.0691006,MALICIOUS MISCHIEF/VANDALISM(MISDEMEANOR)
2007-01-24,20:00:00,MOTOR VEHICLE THEFT,1200 N  Block Escondido Boulevard,SndESC,33.13651098,-117.0926352,TAKE VEHICLE W/O OWNER'S CONSENT/VEHICLE THEFT
2007-01-22,00:00:00,FRAUD,1300  Block Magnolia Avenue,SndESC,33.13991897,-117.0697919,FRAUD
2007-01-25,01:30:00,DUI,1500 S  Block Maple Street,SndESC,33.10758236,-117.0732900,DUI ALCOHOL AND/OR DRUGS
2007-01-23,20:00:00,BURGLARY,1200  Block Avocado Avenue,SndESC,33.13560199,-117.0985029,RESIDENTIAL BURGLARY
2007-01-25,00:00:00,FRAUD,400 E  Block 04Th Avenue,SndESC,33.12083398,-117.0752573,FRAUD
2007-01-22,06:30:00,BURGLARY,1000 N  Block Escondido Boulevard,SndESC,33.13362873,-117.0913783,RESIDENTIAL BURGLARY
2007-01-25,13:01:00,VEHICLE BREAK-IN/THEFT,200 S  Block Escondido Boulevard,SndESC,33.11915170,-117.0833794,VEHICLE BREAK-IN/THEFT
2007-01-23,22:00:00,MOTOR VEHICLE THEFT,1400  Block Vista Verde Way,SndESC,33.15345888,-117.0665488,TAKE VEHICLE W/O OWNER'S CONSENT/VEHICLE THEFT
2007-01-25,16:00:00,VEHICLE BREAK-IN/THEFT,1400 E  Block Valley Parkway,SndESC,33.09479744,-117.0564742,VEHICLE BREAK-IN/THEFT
2007-01-22,13:15:00,DRUGS/ALCOHOL VIOLATIONS,200 W  Block Mission Avenue,SndESC,33.12972764,-117.0873738,POSSESS MARIJUANA 28.5 GRAMS OR LESS OR W/NO PRIOR
2007-01-25,17:45:00,DRUGS/ALCOHOL VIOLATIONS,800 E  Block Washington Avenue,SndESC,33.13000732,-117.0740454,DISORDERLY CONDUCT:  ALCOHOL
2007-01-23,23:00:00,VEHICLE BREAK-IN/THEFT,700  Block Mockingbird Circle,SndESC,33.08911721,-117.0546014,VEHICLE BREAK-IN/THEFT
2007-01-25,17:47:00,DRUGS/ALCOHOL VIOLATIONS,600 N  Block Escondido Boulevard,SndESC,33.12653352,-117.0883151,DISORDERLY CONDUCT:  ALCOHOL
2007-01-22,15:30:00,DRUGS/ALCOHOL VIOLATIONS,1300 E  Block El Norte Parkway,SndESC,33.15195756,-117.0423926,POSSESS MARIJUANA 28.5 GRAMS OR LESS OR W/NO PRIOR
2007-01-25,19:00:00,VANDALISM,1600 E  Block Mission Avenue,SndESC,33.14048049,-117.0630475,"VANDALISM ($5,000-$50,000)"
2007-01-24,07:15:00,MOTOR VEHICLE THEFT,900 N  Block Fig Street,SndESC,33.13499392,-117.0781787,TAKE VEHICLE W/O OWNER'S CONSENT/VEHICLE THEFT
2007-01-25,21:00:00,THEFT/LARCENY,1800 E  Block Grand Avenue,SndESC,33.13282391,-117.0529084,TAMPER WITH AUTO
2007-01-22,22:02:00,DUI,2300 S  Block Escondido Boulevard,SndESC,33.09239386,-117.0720164,DUI ALCOHOL AND/OR DRUGS
2007-01-25,19:23:00,ASSAULT,200 N  Block Midway Drive,SndESC,33.13529902,-117.0503758,THREATEN CRIME WITH INTENT TO TERRORIZE
2007-01-24,13:00:00,FRAUD,300 W  Block Mission Avenue,SndESC,33.12875839,-117.0905005,FRAUD
2007-01-25,22:53:00,DRUGS/ALCOHOL VIOLATIONS,2700 E  Block Valley Parkway,SndESC,33.16995515,-117.1387812,POSSESS MARIJUANA 1 OZ OR  LESS WHILE DRIVING
2007-01-23,11:00:00,VANDALISM,2100 N  Block Iris Lane,SndESC,33.15577756,-117.0944579,VANDALISM ($400 OR MORE)
2007-01-25,20:00:00,MOTOR VEHICLE THEFT,2400  Block Bear Valley Parkway,SndESC,33.13733886,-117.0423195,TAKE VEHICLE W/O OWNER'S CONSENT/VEHICLE THEFT
2007-01-24,20:00:00,VANDALISM,2200 E  Block Valley Parkway,SndESC,33.16263336,-117.0971264,"VANDALISM ($5,000-$50,000)"
2007-01-25,23:00:00,MOTOR VEHICLE THEFT,2200  Block Bear Valley Parkway,SndESC,33.13553732,-117.0437099,TAKE VEHICLE W/O OWNER'S CONSENT/VEHICLE THEFT
2007-01-23,12:15:00,DRUGS/ALCOHOL VIOLATIONS,400 N  Block Spruce Street,SndESC,33.12194644,-117.0938008,DISORDERLY CONDUCT:  ALCOHOL
2007-01-25,20:00:00,VEHICLE BREAK-IN/THEFT,400 N  Block Beech Street,SndESC,33.13031630,-117.0687445,VEHICLE BREAK-IN/THEFT
2007-01-24,21:30:00,VEHICLE BREAK-IN/THEFT,1400  Block Knoll Park Glen,SndESC,33.10123284,-117.0920018,VEHICLE BREAK-IN/THEFT
2007-01-26,01:00:00,MOTOR VEHICLE THEFT,1500 E  Block Grand Avenue,SndESC,33.13032956,-117.0583774,TAKE VEHICLE W/O OWNER'S CONSENT/VEHICLE THEFT
2007-01-23,16:40:00,DRUGS/ALCOHOL VIOLATIONS,300 N  Block Broadway,SndESC,33.12391883,-117.0825018,DISORDERLY CONDUCT:  ALCOHOL
2007-01-25,20:36:00,DRUGS/ALCOHOL VIOLATIONS,1500 E  Block Valley Parkway,SndESC,33.09479744,-117.0564742,PROTECTIVE CUSTODY:DISORDERLY CONDUCT ALCOHOL RELATED
2007-01-24,21:55:00,BURGLARY,800 W  Block Valley Parkway,SndESC,33.09479744,-117.0564742,COMMERCIAL BURGLARY
2007-01-26,11:00:00,VANDALISM,500 E  Block Mission Avenue,SndESC,33.13186750,-117.0805047,VANDALISM (LESS THAN $400)
2007-01-23,19:00:00,VEHICLE BREAK-IN/THEFT,3100  Block Willow Tree Lane,SndESC,33.14572692,-117.0294947,VEHICLE BREAK-IN/THEFT
2007-01-26,01:30:00,VEHICLE BREAK-IN/THEFT,3400 E  Block Valley Parkway,SndESC,33.16995515,-117.1387812,VEHICLE BREAK-IN/THEFT
2007-01-25,08:00:00,THEFT/LARCENY,700 W  Block 05Th Avenue,SndESC,33.11365040,-117.0876970,GRAND THEFT:MONEY/LABOR/PROPERTY OVER $400
2007-01-26,16:00:00,VANDALISM,1500  Block Redwood Street,SndESC,33.10418732,-117.0802817,VANDALISM TO PLACE OF WORSHIP
2007-01-23,19:10:00,VANDALISM,100 W  Block Mission Avenue,SndESC,33.12972764,-117.0873738,"VANDALISM ($5,000-$50,000)"
2007-01-26,13:20:00,DRUGS/ALCOHOL VIOLATIONS,1700 S  Block Iris Lane,SndESC,33.14641779,-117.0973590,POSSESS CONTROLLED SUBSTANCE
2007-01-25,10:00:00,THEFT/LARCENY,1200  Block Autopark Way,SndESC,33.11663245,-117.1099750,GRAND THEFT:MONEY/LABOR/PROPERTY OVER $400
2007-01-27,00:31:00,DRUGS/ALCOHOL VIOLATIONS,1300 E  Block Valley Parkway,SndESC,33.09479744,-117.0564742,USE/UNDER INFLUENCE OF CONTROLLED SUBSTANCE
2007-01-24,10:30:00,ASSAULT,900  Block Martin Drive,SndESC,33.13655576,-117.0758661,PREVENT/DISSUADE WITNESS/VICTIM W/ FORCE/THREAT
2007-01-26,14:00:00,THEFT/LARCENY,100  Block Woodward Avenue,SndESC,33.12558823,-117.0841210,GRAND THEFT:MONEY/LABOR/PROPERTY OVER $400
2007-01-25,12:12:00,ASSAULT,1000 W  Block El Norte Parkway,SndESC,33.15195756,-117.0423926,BATTERY
2007-01-27,12:00:00,VANDALISM,500 N  Block Elm Street,SndESC,33.12963401,-117.0736782,"VANDALISM ($5,000-$50,000)"
2007-01-24,12:00:00,VEHICLE BREAK-IN/THEFT,1300  Block Dos Hermanos Glen,SndESC,33.15329237,-117.0569718,VEHICLE BREAK-IN/THEFT
2007-01-26,16:00:00,BURGLARY,100  Block La Trza Boulevard,SndESC,33.11603336,-117.0962944,COMMERCIAL BURGLARY
2007-01-26,00:00:00,FRAUD,900 W  Block 03Rd Avenue,SndESC,33.11363089,-117.0917434,FRAUD
2007-01-27,15:00:00,BURGLARY,500  Block San Pasqual Valley Road,SndESC,33.12585131,-117.0647481,COMMERCIAL BURGLARY
2007-01-24,12:00:00,THEFT/LARCENY,1500  Block Alana Way,SndESC,33.15346668,-117.0698607,PETTY THEFT
2007-01-26,17:00:00,MOTOR VEHICLE THEFT,1500  Block Mc Kinley Avenue,SndESC,33.13703710,-117.0643894,TAKE VEHICLE W/O OWNER'S CONSENT/VEHICLE THEFT
2007-01-26,00:30:00,VEHICLE BREAK-IN/THEFT,500 E  Block Mission Avenue,SndESC,33.13186750,-117.0805047,VEHICLE BREAK-IN/THEFT
2007-01-27,17:03:00,SEX CRIMES,200 S  Block Kalmia Street,SndESC,33.12120871,-117.0792968,OTHER SEX CRIME
2007-01-24,12:27:00,FRAUD,700 W  Block Grand Avenue,SndESC,33.11737385,-117.0900000,FRAUD
2007-01-26,22:00:00,MOTOR VEHICLE THEFT,1200 E  Block El Norte Parkway,SndESC,33.15195756,-117.0423926,TAKE VEHICLE W/O OWNER'S CONSENT/VEHICLE THEFT
2007-01-26,06:20:00,MOTOR VEHICLE THEFT,400 N  Block Spruce Street,SndESC,33.12194644,-117.0938008,TAKE VEHICLE W/O OWNER'S CONSENT/VEHICLE THEFT
2007-01-27,18:43:00,DRUGS/ALCOHOL VIOLATIONS,600 N  Block Broadway,SndESC,33.12746526,-117.0840708,DISORDERLY CONDUCT:  ALCOHOL
2007-01-24,13:00:00,VEHICLE BREAK-IN/THEFT,1800  Block Esquire Glen,SndESC,33.10362189,-117.1062788,VEHICLE BREAK-IN/THEFT
2007-01-27,01:50:00,VANDALISM,1400 N  Block Ash Street,SndESC,33.14640016,-117.0798700,"VANDALISM ($5,000-$50,000)"
2007-01-26,06:45:00,VEHICLE BREAK-IN/THEFT,3400  Block Del Lago Boulevard,SndESC,33.07266364,-117.0711770,VEHICLE BREAK-IN/THEFT
2007-01-27,19:15:00,ASSAULT,500 W  Block 13Th Avenue,SndESC,33.10777508,-117.0800105,BATTERY
2007-01-24,18:30:00,DRUGS/ALCOHOL VIOLATIONS,600 N  Block Broadway,SndESC,33.12746526,-117.0840708,PROTECTIVE CUSTODY:DISORDERLY CONDUCT ALCOHOL RELATED
2007-01-27,19:05:00,DRUGS/ALCOHOL VIOLATIONS,1100 E  Block Washington Avenue,SndESC,33.13234924,-117.0692426,POSSESS CONTROLLED SUBSTANCE
2007-01-26,11:34:00,VANDALISM,400  Block Hidden Trails Road,SndESC,33.14181479,-117.0230372,"VANDALISM ($5,000-$50,000)"
2007-01-27,19:50:00,DRUGS/ALCOHOL VIOLATIONS,100 W  Block El Norte Parkway,SndESC,33.15092171,-117.0424042,SELL/ETC LIQUOR TO MINOR
2007-01-24,19:30:00,VEHICLE BREAK-IN/THEFT,500 W  Block 15Th Avenue,SndESC,33.10615064,-117.0784999,VEHICLE BREAK-IN/THEFT
2007-01-27,21:50:00,ASSAULT,200 W  Block Felicita Avenue,SndESC,33.10528217,-117.0717738,ASSAULT W/DEADLY WEAPON OTHER THAN FIREARM OR GBI FORCE
2007-01-26,16:00:00,THEFT/LARCENY,600  Block La Trza Boulevard,SndESC,33.11161054,-117.0955819,GRAND THEFT:MONEY/LABOR/PROPERTY OVER $400
2007-01-27,20:10:00,DRUGS/ALCOHOL VIOLATIONS,700 W  Block Grand Avenue,SndESC,33.11737385,-117.0900000,POSSESS MARIJUANA 28.5 GRAMS OR LESS OR W/NO PRIOR
2007-01-24,21:00:00,VEHICLE BREAK-IN/THEFT,1200  Block Sky Crest Glen,SndESC,33.10106516,-117.0915499,VEHICLE BREAK-IN/THEFT
2007-01-28,02:13:00,MOTOR VEHICLE THEFT,1300  Block Daisy Street,SndESC,33.15045311,-117.0661444,TAKE VEHICLE W/O OWNER'S CONSENT/VEHICLE THEFT
2007-01-26,22:00:00,VANDALISM,300  Block Oak Valley Lane,SndESC,33.14418708,-117.0212502,VANDALISM ($400 OR MORE)
2007-01-27,21:00:00,DRUGS/ALCOHOL VIOLATIONS,600 E  Block Mission Avenue,SndESC,33.13256691,-117.0782573,PROTECTIVE CUSTODY:DISORDERLY CONDUCT ALCOHOL RELATED
2007-01-25,00:01:00,DRUGS/ALCOHOL VIOLATIONS,300 W  Block 15Th Avenue,SndESC,33.10751436,-117.0757455,POSS CONTRL SUB PARAPHERNALIA
2007-01-28,21:00:00,VEHICLE BREAK-IN/THEFT,2500  Block Wanek Road,SndESC,33.14599050,-117.0423607,VEHICLE BREAK-IN/THEFT
2007-01-26,23:49:00,DRUGS/ALCOHOL VIOLATIONS,500 W  Block Mission Avenue,SndESC,33.12829120,-117.0919918,USE/UNDER INFLUENCE OF CONTROLLED SUBSTANCE
2007-01-27,22:45:00,BURGLARY,1500 S  Block Juniper Street,SndESC,33.11089517,-117.0701735,RESIDENTIAL BURGLARY
2007-01-25,00:23:00,VEHICLE BREAK-IN/THEFT,2100  Block Vintage Place,SndESC,33.15771224,-117.0612161,VEHICLE BREAK-IN/THEFT
2007-01-28,22:00:00,VEHICLE BREAK-IN/THEFT,1400  Block Aliso Place,SndESC,33.15094480,-117.0748609,VEHICLE BREAK-IN/THEFT
2007-01-27,00:50:00,MOTOR VEHICLE THEFT,700 N  Block Fig Street,SndESC,33.13202917,-117.0768786,TAKE VEHICLE W/O OWNER'S CONSENT/VEHICLE THEFT
2007-01-28,06:00:00,BURGLARY,3200  Block Walden Glen,SndESC,33.11119691,-117.0018754,COMMERCIAL BURGLARY
2007-01-25,12:01:00,DRUGS/ALCOHOL VIOLATIONS,300 W  Block 15Th Avenue,SndESC,33.10751436,-117.0757455,POSS CONTRL SUB PARAPHERNALIA
2007-01-29,05:30:00,BURGLARY,1300 E  Block Grand Avenue,SndESC,33.12815611,-117.0630822,RESIDENTIAL BURGLARY
2007-01-27,02:08:00,DRUGS/ALCOHOL VIOLATIONS,1200 N  Block Escondido Boulevard,SndESC,33.13651098,-117.0926352,DISORDERLY CONDUCT:  ALCOHOL
2007-01-28,17:00:00,VEHICLE BREAK-IN/THEFT,400  Block La Trza Boulevard,SndESC,33.11161054,-117.0955819,VEHICLE BREAK-IN/THEFT
2007-01-25,17:45:00,DRUGS/ALCOHOL VIOLATIONS,1200 N  Block Broadway,SndESC,33.13777657,-117.0886245,DISORDERLY CONDUCT:  ALCOHOL
2007-01-29,06:15:00,MOTOR VEHICLE THEFT,1100 N  Block Escondido Boulevard,SndESC,33.13362873,-117.0913783,TAKE VEHICLE W/O OWNER'S CONSENT/VEHICLE THEFT
2007-01-27,02:20:00,DUI,2400 E  Block Valley Parkway,SndESC,33.16995515,-117.1387812,DUI ALCOHOL AND/OR DRUGS
2007-01-28,20:00:00,MOTOR VEHICLE THEFT,700 N  Block Fig Street,SndESC,33.13202917,-117.0768786,TAKE VEHICLE W/O OWNER'S CONSENT/VEHICLE THEFT
2007-01-25,18:00:00,THEFT/LARCENY,2000 E  Block Grand Avenue,SndESC,33.13466689,-117.0489717,TAMPER WITH AUTO
2007-01-29,10:30:00,MOTOR VEHICLE THEFT,400  Block La Trza Boulevard,SndESC,33.11161054,-117.0955819,TAKE VEHICLE W/O OWNER'S CONSENT/VEHICLE THEFT
2007-01-27,10:30:00,VEHICLE BREAK-IN/THEFT,700 N  Block Rose Street,SndESC,33.13841429,-117.0618442,VEHICLE BREAK-IN/THEFT
2007-01-28,20:00:00,VEHICLE BREAK-IN/THEFT,2100  Block Parktree Lane,SndESC,33.15990178,-117.0902789,VEHICLE BREAK-IN/THEFT
2007-01-26,11:45:00,DRUGS/ALCOHOL VIOLATIONS,1600  Block Forest Glen,SndESC,33.14580652,-117.0972688,POSSESS MARIJUANA 28.5 GRAMS OR LESS OR W/NO PRIOR
2007-01-29,17:30:00,BURGLARY,1900  Block Golden Circle Drive,SndESC,33.15900118,-117.1269398,RESIDENTIAL BURGLARY
2007-01-27,12:00:00,FRAUD,100 N  Block Escondido Boulevard,SndESC,33.12053672,-117.0843576,FRAUD
2007-01-28,23:35:00,DUI,I-15 Nb Sr-78 Eb,SndESC,33.12873510,-117.0990370,DUI ALCOHOL AND/OR DRUGS
2007-01-26,12:01:00,BURGLARY,1600 S  Block Escondido Boulevard,SndESC,33.10528332,-117.0735540,COMMERCIAL BURGLARY
2007-01-29,19:00:00,MOTOR VEHICLE THEFT,500 N  Block Midway Drive,SndESC,33.14002238,-117.0531079,TAKE VEHICLE W/O OWNER'S CONSENT/VEHICLE THEFT
2007-01-27,13:55:00,SEX CRIMES,1600 S  Block Juniper Street,SndESC,33.10790649,-117.0690403,OTHER SEX CRIME
2007-01-29,07:40:00,VEHICLE BREAK-IN/THEFT,900  Block Aster Street,SndESC,33.14231493,-117.0619636,VEHICLE BREAK-IN/THEFT
2007-01-26,15:32:00,THEFT/LARCENY,1400  Block Oak Hill Drive,SndESC,33.12615363,-117.0584784,GRAND THEFT FROM PERSON
2007-01-29,20:30:00,MOTOR VEHICLE THEFT,300  Block Tesoro Glen,SndESC,33.08990116,-117.0711616,TAKE VEHICLE W/O OWNER'S CONSENT/VEHICLE THEFT
2007-01-27,19:13:00,DRUGS/ALCOHOL VIOLATIONS,500 W  Block 09Th Avenue,SndESC,33.11136821,-117.0825396,DISORDERLY CONDUCT:  ALCOHOL
2007-01-29,10:00:00,MOTOR VEHICLE THEFT,200 W  Block 09Th Avenue,SndESC,33.11344092,-117.0784192,TAKE VEHICLE W/O OWNER'S CONSENT/VEHICLE THEFT
2007-01-26,16:00:00,DUI,500 E  Block Valley Parkway,SndESC,33.09416606,-117.0575623,DUI ALCOHOL DRUGS/DEATH CAUSING BODILY INJURY
2007-01-30,11:00:00,BURGLARY,2600 S  Block Escondido Boulevard,SndESC,33.08795746,-117.0717993,COMMERCIAL BURGLARY
2007-01-27,20:25:00,DRUGS/ALCOHOL VIOLATIONS,600 N  Block Escondido Boulevard,SndESC,33.12653352,-117.0883151,PROTECTIVE CUSTODY:DISORDERLY CONDUCT ALCOHOL RELATED
2007-01-29,12:00:00,FRAUD,2200  Block Oak Hill Drive,SndESC,33.13338715,-117.0429194,FRAUD
2007-01-26,17:00:00,BURGLARY,600 N  Block Hickory Street,SndESC,33.13037901,-117.0790748,COMMERCIAL BURGLARY
2007-01-30,19:02:00,ROBBERY,100 E  Block 06Th Avenue,SndESC,33.11749337,-117.0775843,STREET ROBBERY - NO WEAPON
2007-01-27,21:00:00,VANDALISM,1000 N  Block Ash Street,SndESC,33.13958171,-117.0733747,VANDALISM (LESS THAN $400)
2007-01-29,13:25:00,DRUGS/ALCOHOL VIOLATIONS,700 E  Block 05Th Avenue,SndESC,33.12123421,-117.0704401,USE/UNDER INFLUENCE OF CONTROLLED SUBSTANCE
2007-01-26,19:48:00,VANDALISM,200 W  Block 13Th Avenue,SndESC,33.10984890,-117.0758825,"VANDALISM ($5,000-$50,000)"
2007-01-30,21:11:00,VEHICLE BREAK-IN/THEFT,300  Block Poppyfield Glen,SndESC,33.15732998,-117.0891205,VEHICLE BREAK-IN/THEFT
2007-01-28,00:14:00,THEFT/LARCENY,400 W  Block El Norte Parkway,SndESC,33.15092171,-117.0424042,PETTY THEFT
2007-01-29,13:30:00,DRUGS/ALCOHOL VIOLATIONS,600 N  Block Grape Street,SndESC,33.13070922,-117.0780111,POSS CONTRL SUB PARAPHERNALIA
2007-01-26,21:00:00,VANDALISM,200 E  Block 13Th Avenue,SndESC,33.11193037,-117.0717318,VANDALISM ($400 OR MORE)
2007-01-30,21:40:00,MOTOR VEHICLE THEFT,1000 N  Block Broadway,SndESC,33.13499581,-117.0873906,TAKE VEHICLE W/O OWNER'S CONSENT/VEHICLE THEFT
2007-01-28,03:40:00,MOTOR VEHICLE THEFT,2000 E  Block Grand Avenue,SndESC,33.13466689,-117.0489717,TAKE VEHICLE W/O OWNER'S CONSENT/VEHICLE THEFT
2007-01-29,18:00:00,VEHICLE BREAK-IN/THEFT,300 W  Block El Norte Parkway,SndESC,33.15092171,-117.0424042,VEHICLE BREAK-IN/THEFT
2007-01-26,21:00:00,BURGLARY,1400 S  Block Maple Street,SndESC,33.10929909,-117.0745868,RESIDENTIAL BURGLARY
2007-01-30,22:00:00,VEHICLE BREAK-IN/THEFT,500  Block Shadywood Drive,SndESC,33.16100263,-117.0870170,VEHICLE BREAK-IN/THEFT
2007-01-28,21:15:00,VEHICLE BREAK-IN/THEFT,1800 E  Block Grand Avenue,SndESC,33.13282391,-117.0529084,VEHICLE BREAK-IN/THEFT
2007-01-29,20:20:00,THEFT/LARCENY,700 W  Block Felicita Avenue,SndESC,33.10120687,-117.0798776,PETTY THEFT
2007-01-26,22:00:00,ASSAULT,600 N  Block Hickory Street,SndESC,33.13037901,-117.0790748,ASSAULT W/DEADLY WEAPON OTHER THAN FIREARM OR GBI FORCE
2007-01-31,01:00:00,SEX CRIMES,1300  Block Broadway Place,SndESC,33.10964078,-117.0739097,OTHER SEX CRIME
2007-01-29,00:10:00,DUI,500 E  Block Valley Parkway,SndESC,33.09416606,-117.0575623,DUI ALCOHOL AND/OR DRUGS
2007-01-30,10:50:00,DRUGS/ALCOHOL VIOLATIONS,2200  Block Glen Ridge Road,SndESC,33.12963461,-117.0375301,MINOR POSSESS MARIJUANA ON GROUNDS DURING SCHOOL ACTIVITIES
2007-01-27,01:30:00,MOTOR VEHICLE THEFT,300 W  Block El Norte Parkway,SndESC,33.15092171,-117.0424042,TAKE VEHICLE W/O OWNER'S CONSENT/VEHICLE THEFT
2007-01-31,02:00:00,BURGLARY,3400  Block Del Lago Boulevard,SndESC,33.07266364,-117.0711770,COMMERCIAL BURGLARY
2007-01-29,07:30:00,VEHICLE BREAK-IN/THEFT,2100 E  Block Valley Parkway,SndESC,33.16263336,-117.0971264,VEHICLE BREAK-IN/THEFT
2007-01-30,12:00:00,FRAUD,2100  Block Cam Dr,SndESC,33.16154958,-117.1196351,FRAUD
2007-01-27,01:40:00,VANDALISM,600 N  Block Hickory Street,SndESC,33.13037901,-117.0790748,"VANDALISM ($5,000-$50,000)"
2007-01-31,04:00:00,THEFT/LARCENY,1400 E  Block Mission Avenue,SndESC,33.13846522,-117.0664330,PETTY THEFT / THEFT OF PERSONAL PROPERTY / SHOPLIFT
2007-01-29,12:45:00,BURGLARY,2000  Block Winamar Place,SndESC,33.09029497,-117.0954151,RESIDENTIAL BURGLARY
2007-01-31,02:00:00,DRUGS/ALCOHOL VIOLATIONS,2000  Block Amparo Court,SndESC,33.10052583,-117.0641237,PROTECTIVE CUSTODY:DISORDERLY CONDUCT ALCOHOL RELATED
2007-01-27,02:04:00,DUI,1300 E  Block Valley Parkway,SndESC,33.09479744,-117.0564742,DUI ALCOHOL AND/OR DRUGS
2007-01-31,15:00:00,VANDALISM,1000  Block Del Dios Highway,SndESC,33.10720351,-117.1005749,"VANDALISM ($5,000-$50,000)"
2007-01-29,14:24:00,ASSAULT,1300  Block Morning View Drive,SndESC,33.13748963,-117.0959676,BATTERY
2007-01-31,08:00:00,SEX CRIMES,1500 N  Block Broadway,SndESC,33.14419850,-117.0902052,OTHER SEX CRIME
2007-01-27,09:00:00,VEHICLE BREAK-IN/THEFT,800  Block Chestnut Street,SndESC,33.11996893,-117.0688118,VEHICLE BREAK-IN/THEFT
2007-01-31,19:20:00,SEX CRIMES,400 W  Block Mission Avenue,SndESC,33.12875839,-117.0905005,PROSTITUTION
2007-01-29,15:00:00,MOTOR VEHICLE THEFT,1100 E  Block Valley Parkway,SndESC,33.09479744,-117.0564742,TAKE VEHICLE W/O OWNER'S CONSENT/VEHICLE THEFT
2007-01-31,14:15:00,VEHICLE BREAK-IN/THEFT,1100  Block Bridgeport Street,SndESC,33.14410251,-117.0676502,VEHICLE BREAK-IN/THEFT
2007-01-27,21:45:00,BURGLARY,600  Block Hibiscus Glen,SndESC,33.06734263,-117.0562629,RESIDENTIAL BURGLARY
2007-01-31,19:40:00,SEX CRIMES,400 W  Block Mission Avenue,SndESC,33.12875839,-117.0905005,PROSTITUTION
2007-01-29,16:50:00,MOTOR VEHICLE THEFT,1200  Block Autopark Way,SndESC,33.11663245,-117.1099750,TAKE VEHICLE W/O OWNER'S CONSENT/VEHICLE THEFT
2007-01-31,16:30:00,MOTOR VEHICLE THEFT,1600 E  Block Grand Avenue,SndESC,33.13107399,-117.0567304,TAKE VEHICLE W/O OWNER'S CONSENT/VEHICLE THEFT
2007-01-28,01:00:00,DRUGS/ALCOHOL VIOLATIONS,1400 E  Block Mission Avenue,SndESC,33.13846522,-117.0664330,PROTECTIVE CUSTODY:DISORDERLY CONDUCT ALCOHOL RELATED
2007-01-31,20:20:00,SEX CRIMES,400 W  Block Mission Avenue,SndESC,33.12875839,-117.0905005,PROSTITUTION
2007-01-29,17:00:00,VEHICLE BREAK-IN/THEFT,2000  Block Golden Circle Drive,SndESC,33.16170640,-117.1270657,VEHICLE BREAK-IN/THEFT
2007-01-31,16:40:00,VEHICLE BREAK-IN/THEFT,2000 N  Block Nutmeg Street,SndESC,33.15302738,-117.1070992,VEHICLE BREAK-IN/THEFT
2007-01-28,01:20:00,DRUGS/ALCOHOL VIOLATIONS,200 E  Block Mission Avenue,SndESC,33.13110210,-117.0829556,MINOR POSSESS ALCOHOL
2007-01-31,21:00:00,VEHICLE BREAK-IN/THEFT,1200 E  Block Grand Avenue,SndESC,33.12752468,-117.0644972,VEHICLE BREAK-IN/THEFT
2007-01-29,21:20:00,DRUGS/ALCOHOL VIOLATIONS,100  Block Woodward Avenue,SndESC,33.12558823,-117.0841210,DISORDERLY CONDUCT:  ALCOHOL
2007-01-31,21:50:00,VEHICLE BREAK-IN/THEFT,2700  Block Crownpoint Place,SndESC,33.13221159,-117.0307436,VEHICLE BREAK-IN/THEFT
2007-01-28,09:30:00,VEHICLE BREAK-IN/THEFT,1100 N  Block Ash Street,SndESC,33.14107329,-117.0746489,VEHICLE BREAK-IN/THEFT
2007-01-31,22:05:00,VANDALISM,400  Block Avnda Adobe,SndESC,33.06921621,-117.0776874,"VANDALISM ($5,000-$50,000)"
2007-01-30,10:50:00,DRUGS/ALCOHOL VIOLATIONS,2200  Block Glen Ridge Road,SndESC,33.12963461,-117.0375301,MINOR POSSESS MARIJUANA ON GROUNDS DURING SCHOOL ACTIVITIES
2007-02-01,00:00:00,BURGLARY,300 W  Block 03Rd Avenue,SndESC,33.11814715,-117.0835821,RESIDENTIAL BURGLARY
2007-01-28,12:00:00,FRAUD,200  Block Eveningside Glen,SndESC,33.15934016,-117.0956735,FRAUD
2007-02-01,03:20:00,MOTOR VEHICLE THEFT,600  Block Shadywood Drive,SndESC,33.16201713,-117.0868005,BURGLARY/UNSPECIFIED
2007-01-30,15:55:00,DUI,1100 E  Block Washington Avenue,SndESC,33.13234924,-117.0692426,DUI ALCOHOL AND/OR DRUGS
2007-02-01,06:57:00,ROBBERY,3400  Block Del Lago Boulevard,SndESC,33.07266364,-117.0711770,COMMERCIAL ROBBERY - WEAPON USED
2007-01-28,19:00:00,VANDALISM,1300  Block Morning View Drive,SndESC,33.13748963,-117.0959676,VANDALISM (LESS THAN $400)
2007-02-01,12:00:00,FRAUD,1500 S  Block Hale Avenue,SndESC,33.10511860,-117.1114270,FRAUD
2007-01-30,16:30:00,VEHICLE BREAK-IN/THEFT,1200  Block Siggson Avenue,SndESC,33.14469682,-117.0743454,VEHICLE BREAK-IN/THEFT
2007-02-01,07:30:00,THEFT/LARCENY,1500 N  Block Broadway,SndESC,33.14419850,-117.0902052,PETTY THEFT
2007-01-28,19:45:00,DRUGS/ALCOHOL VIOLATIONS,600  Block Norway Court,SndESC,33.12918435,-117.0814233,DISORDERLY CONDUCT:  ALCOHOL
2007-02-01,12:00:00,FRAUD,900  Block Howard Avenue,SndESC,33.11209871,-117.1109363,FRAUD
2007-01-30,16:45:00,BURGLARY,1500 W  Block Valley Parkway,SndESC,33.09479744,-117.0564742,COMMERCIAL BURGLARY
2007-02-01,12:00:00,FRAUD,1200  Block Autopark Way,SndESC,33.11663245,-117.1099750,FRAUD
2007-01-29,08:50:00,VEHICLE BREAK-IN/THEFT,2500  Block White Oak Place,SndESC,33.14642394,-117.0439195,VEHICLE BREAK-IN/THEFT
2007-02-01,13:23:00,DRUGS/ALCOHOL VIOLATIONS,600 N  Block Escondido Boulevard,SndESC,33.12653352,-117.0883151,DISORDERLY CONDUCT:  ALCOHOL
2007-01-30,17:00:00,VANDALISM,300 E  Block Washington Avenue,SndESC,33.12787545,-117.0809030,MALICIOUS MISCHIEF/VANDALISM(MISDEMEANOR)
2007-02-01,12:00:00,THEFT/LARCENY,1000 E  Block Ohio Avenue,SndESC,33.12750527,-117.0681749,PETTY THEFT
2007-01-29,19:05:00,THEFT/LARCENY,1200  Block Autopark Way,SndESC,33.11663245,-117.1099750,PETTY THEFT
2007-02-01,19:00:00,VEHICLE BREAK-IN/THEFT,1900 E  Block Grand Avenue,SndESC,33.13421776,-117.0499637,VEHICLE BREAK-IN/THEFT
2007-01-30,21:07:00,DRUGS/ALCOHOL VIOLATIONS,1000  Block Goldenrod Street,SndESC,33.14831655,-117.0606792,USE/UNDER INFLUENCE OF CONTROLLED SUBSTANCE
2007-02-01,12:00:00,VANDALISM,1600  Block Kingston Drive,SndESC,33.12748455,-117.0537356,"VANDALISM ($5,000-$50,000)"
2007-01-30,06:30:00,VEHICLE BREAK-IN/THEFT,1600  Block Kingston Drive,SndESC,33.12748455,-117.0537356,VEHICLE BREAK-IN/THEFT
2007-02-01,19:25:00,BURGLARY,1300  Block Pleasant Hill Street,SndESC,33.13582410,-117.1017287,RESIDENTIAL BURGLARY
2007-01-30,21:31:00,DUI,1000  Block Goldenrod Street,SndESC,33.14831655,-117.0606792,DUI ALCOHOL AND/OR DRUGS
2007-02-01,13:00:00,VEHICLE BREAK-IN/THEFT,2500  Block White Oak Place,SndESC,33.14642394,-117.0439195,VEHICLE BREAK-IN/THEFT
2007-01-30,12:33:00,DRUGS/ALCOHOL VIOLATIONS,300 N  Block Broadway,SndESC,33.12391883,-117.0825018,DISORDERLY CONDUCT:  ALCOHOL
2007-02-01,22:00:00,BURGLARY,2400 E  Block Mission Avenue,SndESC,33.14927524,-117.0508036,RESIDENTIAL BURGLARY
2007-01-31,16:00:00,BURGLARY,100  Block Jericho Circle,SndESC,33.13882240,-117.0408659,RESIDENTIAL BURGLARY
2007-02-01,13:01:00,VANDALISM,1100 E  Block Valley Parkway,SndESC,33.09479744,-117.0564742,"VANDALISM ($5,000-$50,000)"
2007-01-30,14:00:00,VEHICLE BREAK-IN/THEFT,1700  Block La Honda Drive,SndESC,33.16196761,-117.0571243,VEHICLE BREAK-IN/THEFT
2007-02-02,02:19:00,DUI,1300 E  Block Valley Parkway,SndESC,33.09479744,-117.0564742,DUI ALCOHOL AND/OR DRUGS
2007-01-31,20:38:00,ROBBERY,300 W  Block El Norte Parkway,SndESC,33.15092171,-117.0424042,COMMERCIAL ROBBERY - NO WEAPON
2007-02-01,17:00:00,VEHICLE BREAK-IN/THEFT,700 N  Block Citrus Street,SndESC,33.14622772,-117.0475510,VEHICLE BREAK-IN/THEFT
2007-01-30,16:47:00,THEFT/LARCENY,1500 E  Block Valley Parkway,SndESC,33.09479744,-117.0564742,BURGLARY/UNSPECIFIED
2007-02-02,11:53:00,DRUGS/ALCOHOL VIOLATIONS,200  Block Green Avenue,SndESC,33.10392714,-117.0680609,DISORDERLY CONDUCT:  ALCOHOL
2007-01-31,21:20:00,SEX CRIMES,400 W  Block Mission Avenue,SndESC,33.12875839,-117.0905005,PROSTITUTION
2007-02-01,20:00:00,MOTOR VEHICLE THEFT,1300 W  Block 09Th Avenue,SndESC,33.10923128,-117.0999414,TAKE VEHICLE W/O OWNER'S CONSENT/VEHICLE THEFT
2007-01-30,20:00:00,BURGLARY,500 N  Block Hale Avenue,SndESC,33.11959707,-117.1017526,COMMERCIAL BURGLARY
2007-02-02,17:00:00,VANDALISM,400 N  Block Hickory Street,SndESC,33.12712376,-117.0774089,"VANDALISM ($5,000-$50,000)"
2007-01-31,21:50:00,VANDALISM,1800 N  Block Broadway,SndESC,33.15067132,-117.0912609,"VANDALISM ($5,000-$50,000)"
2007-02-02,07:45:00,BURGLARY,1400  Block Knoll Park Glen,SndESC,33.10123284,-117.0920018,RESIDENTIAL BURGLARY
2007-01-31,00:10:00,DRUGS/ALCOHOL VIOLATIONS,900  Block Harding Street,SndESC,33.13971239,-117.0694920,DISORDERLY CONDUCT:  ALCOHOL
2007-02-02,19:30:00,MOTOR VEHICLE THEFT,1600 E  Block Grand Avenue,SndESC,33.13107399,-117.0567304,TAKE VEHICLE W/O OWNER'S CONSENT/VEHICLE THEFT
2007-02-01,12:00:00,BURGLARY,400  Block Blueridge Place,SndESC,33.15997555,-117.0984164,RESIDENTIAL BURGLARY
2007-02-02,15:07:00,BURGLARY,1400  Block Broadway Place,SndESC,33.10964078,-117.0739097,RESIDENTIAL BURGLARY
2007-01-31,05:00:00,MOTOR VEHICLE THEFT,1500  Block Tanglewood Lane,SndESC,33.10757015,-117.0955307,TAKE VEHICLE W/O OWNER'S CONSENT/VEHICLE THEFT
2007-02-02,19:40:00,DRUGS/ALCOHOL VIOLATIONS,500 E  Block Valley Parkway,SndESC,33.09416606,-117.0575623,DISORDERLY CONDUCT:  ALCOHOL
2007-02-01,12:00:00,FRAUD,1800 N  Block Broadway,SndESC,33.15067132,-117.0912609,FRAUD
2007-02-02,17:49:00,VEHICLE BREAK-IN/THEFT,2400 E  Block Mission Avenue,SndESC,33.14927524,-117.0508036,VEHICLE BREAK-IN/THEFT
2007-01-31,08:20:00,VANDALISM,400  Block Hidden Trails Road,SndESC,33.14181479,-117.0230372,"VANDALISM ($5,000-$50,000)"
2007-02-03,00:43:00,THEFT/LARCENY,1100 N  Block Escondido Boulevard,SndESC,33.13362873,-117.0913783,PETTY THEFT
2007-02-01,12:00:00,MOTOR VEHICLE THEFT,400 W  Block Washington Avenue,SndESC,33.12551264,-117.0884858,TAKE VEHICLE W/O OWNER'S CONSENT/VEHICLE THEFT
2007-02-02,18:50:00,DRUGS/ALCOHOL VIOLATIONS,100 E  Block Mission Avenue,SndESC,33.13067365,-117.0843398,DISORDERLY CONDUCT:  ALCOHOL
2007-01-31,08:45:00,THEFT/LARCENY,1200  Block Autopark Way,SndESC,33.11663245,-117.1099750,BURGLARY/UNSPECIFIED
2007-02-03,09:30:00,BURGLARY,1600  Block Vista Verde Way,SndESC,33.15423533,-117.0674048,COMMERCIAL BURGLARY
2007-02-01,12:50:00,DRUGS/ALCOHOL VIOLATIONS,2200  Block Glen Ridge Road,SndESC,33.12963461,-117.0375301,DISORDERLY CONDUCT:  ALCOHOL
2007-02-02,22:00:00,VANDALISM,1600 E  Block Grand Avenue,SndESC,33.13107399,-117.0567304,"VANDALISM ($5,000-$50,000)"
2007-01-31,12:00:00,VANDALISM,1500 N  Block Broadway,SndESC,33.14419850,-117.0902052,"VANDALISM ($5,000-$50,000)"
2007-02-03,10:12:00,MOTOR VEHICLE THEFT,1200  Block Conway Drive,SndESC,33.14481200,-117.0722316,TAKE VEHICLE W/O OWNER'S CONSENT/VEHICLE THEFT
2007-02-02,02:00:00,VEHICLE BREAK-IN/THEFT,1300 E  Block Valley Parkway,SndESC,33.09479744,-117.0564742,VEHICLE BREAK-IN/THEFT
2007-02-02,23:00:00,VEHICLE BREAK-IN/THEFT,1400  Block Oak Hill Drive,SndESC,33.12615363,-117.0584784,VEHICLE BREAK-IN/THEFT
2007-01-31,13:13:00,DRUGS/ALCOHOL VIOLATIONS,2300 E  Block Valley Parkway,SndESC,33.16263336,-117.0971264,DISORDERLY CONDUCT:  ALCOHOL
2007-02-03,13:30:00,VANDALISM,100 W  Block 04Th Avenue,SndESC,33.11860662,-117.0802371,VANDALISM ($400 OR MORE)
2007-02-02,03:15:00,VEHICLE BREAK-IN/THEFT,2500  Block White Oak Place,SndESC,33.14642394,-117.0439195,VEHICLE BREAK-IN/THEFT
2007-02-03,08:00:00,VEHICLE BREAK-IN/THEFT,2000 E  Block Valley Parkway,SndESC,33.16263336,-117.0971264,VEHICLE BREAK-IN/THEFT
2007-01-31,16:35:00,VEHICLE BREAK-IN/THEFT,2000 E  Block Valley Parkway,SndESC,33.16263336,-117.0971264,VEHICLE BREAK-IN/THEFT
2007-02-03,14:00:00,VANDALISM,1500  Block Dublin Lane,SndESC,33.16100717,-117.0572335,VANDALISM ($400 OR MORE)
2007-02-02,12:25:00,WEAPONS,1500 N  Block Broadway,SndESC,33.14419850,-117.0902052,MANUFACTURE/SELL/POSSESS DANGEROUS WEAPONS/EXPLOSIVES/ETC
2007-02-03,14:00:00,DRUGS/ALCOHOL VIOLATIONS,2400 E  Block Valley Parkway,SndESC,33.16995515,-117.1387812,POSS CONTROLLED SUBSTANCE FOR SALE
2007-01-31,18:00:00,THEFT/LARCENY,700  Block Opper Street,SndESC,33.13128669,-117.1261892,GRAND THEFT:MONEY/LABOR/PROPERTY OVER $400
2007-02-03,23:40:00,DUI,1300 E  Block Valley Parkway,SndESC,33.09479744,-117.0564742,DUI ALCOHOL AND/OR DRUGS
2007-02-02,12:28:00,MOTOR VEHICLE THEFT,600  Block Amys Place,SndESC,33.14820315,-117.0486895,TAKE VEHICLE W/O OWNER'S CONSENT/VEHICLE THEFT
2007-02-03,22:30:00,MOTOR VEHICLE THEFT,300  Block Waverly Place,SndESC,33.12449464,-117.0813429,TAKE VEHICLE W/O OWNER'S CONSENT/VEHICLE THEFT
2007-01-31,20:53:00,ROBBERY,300 W  Block El Norte Parkway,SndESC,33.15092171,-117.0424042,COMMERCIAL ROBBERY - WEAPON USED
2007-02-04,06:12:00,BURGLARY,1900  Block Fleetwood Street,SndESC,33.10214366,-117.1082012,RESIDENTIAL BURGLARY
2007-02-02,14:34:00,ASSAULT,200 S  Block Kalmia Street,SndESC,33.12120871,-117.0792968,ASSAULT W/DEADLY WEAPON OTHER THAN FIREARM OR GBI FORCE
2007-02-04,19:05:00,DUI,1600 S  Block Juniper Street,SndESC,33.10790649,-117.0690403,DUI ALCOHOL AND/OR DRUGS
2007-02-01,00:00:00,FRAUD,900 N  Block Fig Street,SndESC,33.13499392,-117.0781787,FRAUD
2007-02-04,13:15:00,BURGLARY,600  Block Utah Way,SndESC,33.10111730,-117.0766624,RESIDENTIAL BURGLARY
2007-02-02,17:23:00,DRUGS/ALCOHOL VIOLATIONS,300 E  Block Washington Avenue,SndESC,33.12787545,-117.0809030,POSSESS CONTROLLED SUBSTANCE
2007-02-04,21:00:00,VANDALISM,1300  Block Oak Hill Drive,SndESC,33.12471656,-117.0616142,"VANDALISM ($5,000-$50,000)"
2007-02-01,03:00:00,BURGLARY,2200  Block Jefferson Avenue,SndESC,33.14446242,-117.0517630,RESIDENTIAL BURGLARY
2007-02-04,14:00:00,MOTOR VEHICLE THEFT,700 E  Block Mission Avenue,SndESC,33.13300966,-117.0769555,TAKE VEHICLE W/O OWNER'S CONSENT/VEHICLE THEFT
2007-02-02,19:09:00,DRUGS/ALCOHOL VIOLATIONS,300 E  Block Washington Avenue,SndESC,33.12787545,-117.0809030,USE/UNDER INFLUENCE OF CONTROLLED SUBSTANCE
2007-02-05,07:45:00,DRUGS/ALCOHOL VIOLATIONS,500 E  Block Mission Avenue,SndESC,33.13186750,-117.0805047,POSSESS SYRINGE
2007-02-01,02:50:00,DRUGS/ALCOHOL VIOLATIONS,700 N  Block Escondido Boulevard,SndESC,33.12825025,-117.0890261,TRANSPORT/SELL CONTROLLED SUBSTANCE
2007-02-04,15:21:00,ASSAULT,1500 E  Block Valley Parkway,SndESC,33.09479744,-117.0564742,ASSAULT W/DEADLY WEAPON OTHER THAN FIREARM OR GBI FORCE
2007-02-02,20:11:00,SEX CRIMES,1200 E  Block Valley Parkway,SndESC,33.09479744,-117.0564742,OTHER SEX CRIME
2007-02-05,09:40:00,DRUGS/ALCOHOL VIOLATIONS,1500 N  Block Broadway,SndESC,33.14419850,-117.0902052,MINOR POSSESS ALCOHOL
2007-02-01,09:20:00,THEFT/LARCENY,1200  Block Autopark Way,SndESC,33.11663245,-117.1099750,BURGLARY/UNSPECIFIED
2007-02-04,19:00:00,BURGLARY,200 S  Block Beech Street,SndESC,33.12552664,-117.0664694,RESIDENTIAL BURGLARY
2007-02-02,20:40:00,THEFT/LARCENY,300 W  Block El Norte Parkway,SndESC,33.15092171,-117.0424042,PETTY THEFT
2007-02-05,10:00:00,VANDALISM,1100 N  Block Ivy Street,SndESC,33.13680061,-117.0840387,VANDALISM ($400 OR MORE)
2007-02-01,10:00:00,VEHICLE BREAK-IN/THEFT,1300  Block Morning View Drive,SndESC,33.13748963,-117.0959676,VEHICLE BREAK-IN/THEFT
2007-02-04,20:32:00,THEFT/LARCENY,100  Block Crest Street,SndESC,33.13100533,-117.0879329,PETTY THEFT
2007-02-02,22:20:00,DRUGS/ALCOHOL VIOLATIONS,1300 E  Block Valley Parkway,SndESC,33.09479744,-117.0564742,DISORDERLY CONDUCT:  ALCOHOL
2007-02-05,14:00:00,FRAUD,500 N  Block Midway Drive,SndESC,33.14002238,-117.0531079,FRAUD
2007-02-01,10:30:00,THEFT/LARCENY,1200  Block La Paloma Glen,SndESC,33.15346739,-117.1126006,GRAND THEFT:MONEY/LABOR/PROPERTY OVER $400
2007-02-04,21:15:00,DRUGS/ALCOHOL VIOLATIONS,200 E  Block 05Th Avenue,SndESC,33.11907712,-117.0768725,DISORDERLY CONDUCT:  ALCOHOL
2007-02-02,23:00:00,VANDALISM,1300  Block Vista Verde Way,SndESC,33.15048023,-117.0640643,"VANDALISM ($5,000-$50,000)"
